Time,Airspeed,Altitude,Roll,Pitch,Yaw,Rudder,Latitude,Longitude
0,1.37,12.51811821,1.91,7.41,-7.05,0,35.2942328,136.2544382
0.054,1.46,12.60951366,1.73,7.4,-7.04,0,35.2942328,136.2544382
0.203,1.61,12.51561004,1.77,7.41,-7.04,0,35.2942328,136.2544382
0.26,1.69,12.60951366,1.76,7.45,-7.05,0,35.2942328,136.2544382
0.316,1.91,12.60700257,1.77,7.42,-7.04,0,35.2942328,136.2544382
0.373,2.08,12.60449147,1.74,7.39,-7.05,0,35.2942328,136.2544382
0.431,2.46,12.60700257,1.73,7.36,-7.05,0,35.294233,136.254438
0.488,2.69,12.51561004,1.66,7.32,-7.04,0,35.294233,136.254438
0.543,3.3,12.69839618,1.63,7.24,-7.05,-0.0675,35.2942335,136.2544378
0.73,3.52,12.51561004,1.51,6.99,-7.05,0,35.2942335,136.2544378
0.787,3.68,12.97006074,1.49,7.36,-7.07,0,35.2942335,136.2544378
0.843,4.16,13.5209874,1.5,7.5,-7.13,0,35.2942347,136.2544348
0.898,4.52,13.24424906,1.54,7.41,-7.24,-0.0675,35.2942355,136.2544333
0.954,4.56,12.69588217,1.57,7.2,-7.32,0,35.2942355,136.2544333
1.009,4.67,12.41920808,1.69,7.35,-7.36,0,35.2942367,136.2544318
1.065,5.29,13.05893008,1.57,7.52,-7.43,0,35.2942367,136.2544318
1.282,5.13,12.51059369,1.74,8.38,-8.14,0,35.2942367,136.2544318
1.337,5.08,13.24171754,2.06,8.62,-8.15,0,35.2942367,136.2544318
1.395,5.48,13.24171754,2.28,8.66,-8.14,0,35.2942435,136.2544223
1.45,5.62,12.78475701,2.39,8.89,-8.23,-0.0675,35.2942435,136.2544223
1.506,5.42,13.51590685,2.21,9.34,-8.44,0,35.2942452,136.2544188
1.562,5.38,14.43251107,2.46,9.16,-8.52,0,35.2942452,136.2544188
1.619,5.73,13.15032327,2.52,9.36,-8.52,0,35.2942472,136.2544152
1.677,5.9,12.69336816,2.5,9.52,-8.46,0,35.2942472,136.2544152
1.734,5.82,13.33564733,2.51,9.74,-8.56,0,35.2942493,136.2544113
1.789,5.76,13.51590685,2.79,9.74,-8.66,0,35.2942493,136.2544113
1.846,5.86,12.97006074,3.22,9.38,-8.58,0,35.294251,136.2544073
1.902,5.94,11.87091716,3.23,9.53,-8.36,0,35.294253,136.2544032
1.958,5.9,12.9725835,3.28,9.95,-8.27,0,35.294253,136.2544032
2.014,5.93,12.51059369,3.41,9.97,-8.28,0,35.2942553,136.2543987
2.07,6.12,13.42958404,3.29,10.12,-8.31,0,35.2942553,136.2543987
2.125,6.32,13.15032327,3.51,10.44,-8.39,0,35.2942578,136.2543938
2.184,6.23,12.42171334,3.58,10.53,-8.25,1.5525,35.2942578,136.2543938
2.241,6.46,12.8786668,3.54,10.64,-8.11,1.485,35.2942602,136.2543888
2.299,6.84,12.33032589,3.52,10.67,-8.02,0.81,35.2942628,136.2543835
2.355,7.03,11.78202397,4.22,9.42,-7.88,-0.8775,35.2942628,136.2543835
2.409,6.93,11.96478694,3.83,10,-7.74,2.3625,35.2942655,136.2543778
2.464,7.13,11.23622834,3.94,10.41,-7.76,-1.78875,35.2942655,136.2543778
2.522,7.25,11.41403783,3.82,11.14,-7.74,-0.7425,35.2942683,136.2543715
2.579,7.19,12.69588217,3.58,11.41,-7.73,0.7425,35.2942683,136.2543715
2.638,7.12,12.05367647,3.56,11.96,-7.79,0.2025,35.294271,136.2543653
2.694,7.21,12.42171334,3.36,12.11,-7.82,0.945,35.2942738,136.2543592
2.749,7.05,12.33032589,3.31,12.33,-7.81,-1.0125,35.2942738,136.2543592
2.805,7.02,10.68553702,3.56,12.63,-7.67,2.7675,35.2942765,136.2543525
2.861,6.95,11.50541153,3.44,12.56,-7.75,-0.4725,35.2942765,136.2543525
2.917,7.18,11.68816218,3.57,12.48,-7.84,-0.27,35.2942797,136.254346
2.976,7.01,11.23129368,3.49,12.53,-7.96,1.35,35.2942797,136.254346
3.032,7.03,10.95718557,3.54,13.08,-8.05,-0.675,35.2942823,136.2543392
3.089,6.79,11.13992323,3.6,14.02,-8.18,0.7425,35.2942823,136.2543392
3.145,6.78,13.24424906,3.42,14.26,-8.3,0.7425,35.294285,136.2543327
3.202,7.28,12.78475701,3.37,13.51,-8.42,0.7425,35.2942877,136.2543257
3.374,7.84,10.59417014,3.62,14.22,-8.82,0.405,35.2942877,136.2543257
3.428,8.03,11.05101535,3.68,14.1,-9.02,0.405,35.2942877,136.2543257
3.486,8.07,9.860850514,3.82,14.5,-9.24,0.405,35.2942877,136.2543257
3.544,8.01,9.586791098,4,14.77,-9.4,0.405,35.2942947,136.2543003
3.602,8.18,9.130047044,4.15,14.99,-9.55,0.405,35.294297,136.254291
3.656,8.3,9.495440124,4.26,15.5,-9.81,0.405,35.294297,136.254291
3.714,8.37,9.584376276,4.36,15.71,-10.04,0.405,35.2942997,136.254282
3.768,8.43,8.944962589,4.64,16.57,-10.58,0.3375,35.2942997,136.254282
3.88,8.65,8.394558995,4.81,16.99,-10.83,-247.7925,35.2942997,136.254282
3.939,8.66,8.303227916,4.8,17.24,-11.16,0.3375,35.2942997,136.254282
3.996,8.79,8.483511331,5.09,17.27,-11.45,0.405,35.2943087,136.2542558
4.054,8.87,8.848839124,5.25,17.29,-11.65,0.405,35.2943087,136.2542558
4.109,8.92,8.300853924,5.48,16.99,-11.87,0.405,35.2943117,136.254246
4.166,8.92,7.846588744,5.5,16.95,-12.12,0.405,35.2943117,136.254246
4.222,9.32,7.937914415,5.62,16.87,-12.46,0.3375,35.2943143,136.2542365
4.373,9.51,7.846588744,5.71,16.97,-13.05,0.405,35.2943143,136.2542365
4.43,9.61,7.296315509,5.68,16.53,-13.35,0.675,35.2943195,136.2542158
4.488,9.75,6.931061252,5.68,16.37,-13.71,0.7425,35.2943195,136.2542158
4.545,9.74,6.111606432,5.46,15.8,-13.96,0.7425,35.2943222,136.2542048
4.602,9.74,5.107321361,5.52,15.95,-14.18,0.7425,35.2943248,136.2541935
4.658,10.07,5.835402267,5.46,15.61,-14.36,0.7425,35.2943248,136.2541935
4.716,10.07,6.294217769,5.42,15.29,-14.61,-247.7925,35.2943273,136.2541817
4.898,10.22,5.926701237,5.02,14.53,-15.32,307.09125,35.2943273,136.2541817
4.956,10.2,5.744104378,4.87,14.34,-15.51,0.675,35.2943273,136.2541817
5.01,10.01,5.744104378,4.7,14.02,-15.76,0.675,35.2943328,136.2541422
5.068,9.99,5.650518134,4.45,13.81,-15.93,0.7425,35.2943328,136.2541422
5.122,10.29,5.741812027,4.21,13.59,-16.09,0.675,35.2943352,136.2541287
5.178,10.28,5.650518134,4.08,13.33,-16.22,0.675,35.2943352,136.2541287
5.235,10.36,5.37436225,3.95,13.12,-16.41,0.675,35.2943377,136.2541155
5.451,10.41,5.011491144,3.61,12.29,-16.99,0.675,35.2943377,136.2541155
5.509,10.45,4.82665853,3.54,12,-17.08,0.7425,35.2943377,136.2541155
5.566,10.46,4.739898929,3.45,11.74,-17.21,0.675,35.2943377,136.2541155
5.622,10.44,4.555075714,3.36,11.54,-17.32,0.7425,35.2943468,136.2540628
5.677,10.49,4.463795869,3.24,11.33,-17.44,0.675,35.2943468,136.2540628
5.733,10.51,4.281239422,3.05,11.15,-17.52,0.7425,35.2943497,136.2540498
5.789,10.55,4.278993711,2.86,10.53,-17.59,0.7425,35.2943533,136.2540365
5.849,10.51,4.007412854,2.67,10.24,-17.68,0.675,35.2943533,136.2540365
5.907,10.48,4.007412854,2.43,9.91,-17.76,0.675,35.2943567,136.2540218
5.962,10.51,4.098687296,2.15,9.55,-17.82,0.7425,35.2943567,136.2540218
6.019,10.53,3.64010058,1.93,9.22,-17.86,0.675,35.29436,136.2540077
6.073,10.49,3.827098348,1.69,8.76,-17.92,0.7425,35.29436,136.2540077
6.129,10.39,3.735824233,1.49,8.49,-17.96,0.7425,35.2943642,136.2539947
6.186,10.3,3.459788888,1.26,8.09,-18.02,0.675,35.2943642,136.2539947
6.244,10.35,3.462008368,1.04,7.76,-18.06,0.7425,35.294369,136.2539828
6.301,10.5,3.368522008,0.94,7.38,-18.09,0.7425,35.2943738,136.2539705
6.356,10.44,3.185991488,0.82,7.02,-18.15,0.7425,35.2943738,136.2539705
6.412,10.29,3.003465289,0.69,6.73,-18.19,0.7425,35.2943787,136.2539577
6.468,10.18,3.005670198,0.57,6.41,-18.22,0.7425,35.2943787,136.2539577
6.524,10.32,3.094727849,0.43,6.08,-18.23,0.675,35.2943832,136.2539448
6.58,10.38,2.820943411,0.22,5.75,-18.24,0.675,35.2943832,136.2539448
6.635,10.61,2.640619104,0.11,5.11,-18.24,0.7425,35.2943875,136.2539318
6.691,10.62,2.364657616,-0.02,4.81,-18.26,0.675,35.2943918,136.2539198
6.75,10.52,2.362473106,-0.17,4.46,-18.26,0.675,35.2943918,136.2539198
6.807,10.67,2.455912615,-0.11,4.27,-18.27,0.7425,35.2943963,136.253907
6.864,10.56,2.364657616,0.17,4.3,-18.3,0.675,35.2943963,136.253907
6.919,10.55,2.275585292,0.03,4.03,-18.3,0.675,35.2944007,136.2538943
6.975,10.5,2.182150858,-0.1,3.81,-18.3,0.675,35.2944007,136.2538943
7.028,10.45,2.275585292,-0.26,3.65,-18.28,0.675,35.2944057,136.2538827
7.085,10.39,2.184329539,-0.46,3.47,-18.24,0.675,35.2944057,136.2538827
7.143,10.33,2.273403697,-0.55,3.26,-18.2,0.675,35.2944113,136.2538718
7.2,10.42,2.093074866,-0.64,3.09,-18.15,0.675,35.2944167,136.2538608
7.256,10.45,2.275585292,-0.66,2.92,-18.1,0.675,35.2944167,136.2538608
7.312,10.44,2.001821273,-0.68,2.74,-18.03,0.7425,35.2944215,136.2538493
7.368,10.42,2.093074866,-0.59,2.83,-17.98,0.675,35.2944215,136.2538493
7.426,10.3,2.453725191,-0.71,2.57,-17.92,0.675,35.2944267,136.2538387
7.596,10.25,2.547168694,-1.1,1.81,-17.67,-247.7925,35.2944267,136.2538387
7.653,10.26,2.455912615,-1.18,1.68,-17.58,0.675,35.2944267,136.2538387
7.71,10.2,2.366842125,-1.26,1.6,-17.5,0.675,35.294443,136.2538072
7.767,10.14,2.820943411,-1.36,1.57,-17.43,0.675,35.294443,136.2538072
7.821,10.11,2.640619104,-1.47,1.44,-17.32,0.675,35.2944462,136.2537943
7.879,10.14,3.096935671,-1.54,1.39,-17.25,0.675,35.2944462,136.2537943
7.933,10.18,3.096935671,-1.55,1.17,-17.16,-247.7925,35.2944505,136.253782
8.048,10.21,3.003465289,-1.83,1.04,-17,0.7425,35.2944505,136.253782
8.107,10.12,3.003465289,-1.96,0.92,-16.9,0.675,35.2944505,136.253782
8.162,10.07,3.099143494,-2.06,0.77,-16.8,0.675,35.2944505,136.253782
8.22,10.02,3.28168351,-2.14,0.58,-16.74,0.675,35.2944605,136.2537413
8.274,10.01,3.188202225,-2.23,0.44,-16.66,0.7425,35.2944605,136.2537413
8.33,9.82,3.192623698,-2.31,0.36,-16.59,0.675,35.2944655,136.2537297
8.385,9.96,3.370738573,-2.42,0.29,-16.5,0.675,35.2944655,136.2537297
8.537,9.8,3.555501636,-2.55,0.18,-16.34,-247.7925,35.2944705,136.2537185
8.593,9.76,3.555501636,-2.64,0.04,-16.28,0.7425,35.2944705,136.2537185
8.649,9.73,3.646776506,-2.71,-0.19,-16.24,0.7425,35.2944705,136.2537185
8.708,9.71,3.738052456,-2.72,-0.46,-16.21,0.7425,35.294485,136.2536843
8.764,9.78,3.829329486,-2.74,-0.68,-16.19,0.675,35.294485,136.2536843
8.821,9.73,3.920607597,-2.77,-0.85,-16.16,0.675,35.2944905,136.253674
8.875,9.66,4.103167059,-2.84,-0.98,-16.11,0.675,35.2944905,136.253674
9.062,9.31,4.283485133,-3.06,-1.28,-16.1,0.7425,35.2944905,136.253674
9.116,9.34,4.372517105,-3.1,-1.43,-16.11,-247.7925,35.2944958,136.2536628
9.173,9.31,4.189962819,-3.09,-1.49,-16.13,0.81,35.2944958,136.2536628
9.231,9.21,4.103167059,-3.02,-1.47,-16.13,0.8775,35.2944958,136.2536628
9.285,9.13,4.283485133,-3.03,-1.61,-16.15,0.8775,35.2944958,136.2536628
9.341,9.12,4.285730843,-2.91,-1.61,-16.2,0.8775,35.2945145,136.2536225
9.397,9.07,4.377014356,-2.93,-1.65,-16.22,0.8775,35.2945192,136.2536125
9.455,9.06,4.650871378,-3.22,-1.58,-16.38,-247.7925,35.2945192,136.2536125
9.668,9.1,4.82892173,-3.28,-1.26,-16.47,0.81,35.2945192,136.2536125
9.726,9.03,5.011491144,-3.41,-0.99,-16.54,307.09125,35.2945192,136.2536125
9.78,9.05,5.009222114,-3.43,-0.86,-16.6,0.81,35.2945192,136.2536125
9.835,9.08,4.920205897,-3.42,-0.79,-16.66,0.8775,35.29454,136.2535792
9.889,9.1,5.105049417,-3.46,-0.71,-16.76,0.81,35.29454,136.2535792
9.946,9.09,5.011491144,-3.54,-0.63,-16.85,0.81,35.2945447,136.2535703
10.003,9.07,5.19633974,-3.58,-0.55,-17,0.8775,35.2945488,136.2535607
10.058,8.97,4.920205897,-3.59,-0.41,-17.12,0.8775,35.2945488,136.2535607
10.116,8.93,5.105049417,-3.64,-0.35,-17.19,0.81,35.2945535,136.2535522
10.173,8.93,4.922472011,-3.73,-0.1,-17.32,0.81,35.2945535,136.2535522
10.229,8.79,5.102777472,-3.75,-0.06,-17.47,0.81,35.2945582,136.253544
10.287,8.79,5.19406488,-3.79,0.06,-17.6,0.81,35.2945582,136.253544
10.34,8.88,5.191790021,-3.84,0.24,-17.74,0.81,35.2945628,136.2535355
10.395,8.81,5.28535337,-3.86,0.24,-17.86,0.8775,35.2945677,136.253527
10.452,8.77,5.19406488,-3.79,0.47,-18.02,0.81,35.2945677,136.253527
10.508,8.69,5.19406488,-3.81,0.45,-18.19,0.8775,35.2945722,136.2535183
10.566,8.66,5.283075595,-3.83,0.39,-18.32,0.81,35.2945722,136.2535183
10.622,8.69,5.283075595,-3.91,0.39,-18.48,0.81,35.2945768,136.2535097
10.678,8.69,5.283075595,-3.68,0.65,-18.63,0.8775,35.2945768,136.2535097
10.732,8.61,5.28535337,-3.54,0.91,-18.8,0.81,35.294581,136.2534993
10.789,8.58,5.28535337,-3.6,1.01,-18.94,0.8775,35.294581,136.2534993
10.843,8.45,5.37436225,-3.7,1.18,-19.1,0.8775,35.2945858,136.2534915
10.9,8.56,5.37436225,-3.49,1.49,-19.26,0.81,35.2945908,136.2534848
10.956,8.64,5.283075595,-3.6,1.63,-19.44,0.81,35.2945908,136.2534848
11.013,8.63,5.37892363,-3.74,1.75,-19.62,0.81,35.2945955,136.2534767
11.07,8.38,5.28535337,-3.85,1.84,-19.77,0.8775,35.2945955,136.2534767
11.128,8.44,5.465649985,-3.97,1.87,-19.96,0.81,35.2946002,136.2534685
11.183,8.22,5.37664294,-4.08,1.93,-20.16,0.81,35.2946002,136.2534685
11.241,8.28,5.28535337,-4.21,2.01,-20.31,0.8775,35.2946047,136.2534608
11.294,8.38,5.465649985,-4.29,2.06,-20.51,0.81,35.2946097,136.2534537
11.349,8.28,5.470217195,-4.38,2.14,-20.68,0.81,35.2946097,136.2534537
11.406,8.22,5.470217195,-4.49,2.28,-20.87,0.81,35.2946145,136.2534455
11.463,8.18,5.46793359,-4.64,2.4,-21.07,0.81,35.2946145,136.2534455
11.521,8.17,5.37892363,-4.72,2.47,-21.24,0.8775,35.2946195,136.2534382
11.577,8.13,5.46793359,-4.84,2.61,-21.44,0.8775,35.2946195,136.2534382
11.746,8.21,5.46793359,-5.14,2.88,-22.04,-247.7925,35.294624,136.2534312
11.802,8.24,5.465649985,-5.21,2.93,-22.23,307.09125,35.294633,136.2534163
11.858,8.38,5.46793359,-5.27,2.97,-22.45,4.3875,35.294633,136.2534163
11.916,8.34,5.28535337,-5.34,3.01,-22.68,11.2725,35.2946377,136.2534088
11.973,8.3,5.37664294,-5.4,3.05,-22.87,18.73125,35.2946377,136.2534088
12.029,8.3,5.37664294,-5.46,3.1,-23.09,20.3175,35.2946425,136.2534015
12.085,8.22,5.28535337,-5.51,3.2,-23.27,20.62125,35.2946425,136.2534015
12.2,8.21,5.287631145,-5.3,3.35,-23.58,20.75625,35.2946477,136.2533943
12.256,8.22,5.19633974,-5.3,3.43,-23.76,20.75625,35.2946477,136.2533943
12.312,8.21,5.28535337,-5.29,3.49,-23.89,20.75625,35.2946575,136.2533802
12.369,8.2,5.19633974,-4.6,3.62,-24.03,20.75625,35.2946575,136.2533802
12.426,8.16,5.107321361,-3.72,3.83,-24.16,20.79,35.2946625,136.2533735
12.484,8.16,5.19633974,-3.69,3.91,-24.22,20.8575,35.2946625,136.2533735
12.538,8.13,5.1986146,-3.67,4.05,-24.27,20.9925,35.2946673,136.2533668
12.595,8.2,5.19633974,-2.26,4.37,-24.41,-247.7925,35.2946673,136.2533668
12.743,8.23,5.19633974,-1.79,4.42,-24.44,20.08125,35.2946673,136.2533668
12.799,8.42,5.107321361,-1.41,4.59,-24.46,18.0225,35.2946673,136.2533668
12.854,8.35,5.19633974,-1.14,4.69,-24.47,18.225,35.2946673,136.2533668
12.911,8.38,5.102777472,-0.87,4.81,-24.48,11.6775,35.2946888,136.2533403
12.967,8.34,5.011491144,-0.7,4.91,-24.45,4.9275,35.2946888,136.2533403
13.026,8.26,4.920205897,-0.58,4.99,-24.4,-3.24,35.2946943,136.253334
13.082,8.48,4.83344813,-0.45,5.11,-24.39,-247.7925,35.2946943,136.253334
13.266,8.53,5.016029203,-0.08,5.47,-24.39,1.08,35.2946943,136.253334
13.323,8.59,5.105049417,0.02,5.61,-24.39,1.08,35.2946943,136.253334
13.378,8.61,4.924738126,0.11,5.71,-24.39,1.08,35.2946943,136.253334
13.435,8.57,4.742159214,0.18,5.77,-24.45,1.1475,35.2946943,136.253334
13.491,8.61,4.920205897,0.23,5.79,-24.52,1.08,35.2946943,136.253334
13.549,8.64,4.924738126,0.3,5.78,-24.58,1.08,35.2947232,136.253301
13.602,8.54,4.739898929,0.35,5.75,-24.68,-247.7925,35.2947232,136.253301
13.817,8.62,4.374765731,0.6,5.48,-25.09,1.1475,35.2947288,136.2532945
13.874,8.66,4.283485133,0.57,5.24,-25.28,1.1475,35.2947288,136.2532945
13.931,8.74,4.189962819,0.65,5.02,-25.45,1.1475,35.2947288,136.2532945
13.99,8.71,4.100927178,0.68,4.75,-25.62,1.1475,35.2947288,136.2532945
14.044,8.72,4.100927178,0.73,4.47,-25.77,1.08,35.294753,136.2532697
14.101,8.76,4.192205615,0.73,4.28,-25.91,1.1475,35.2947588,136.2532633
14.154,8.73,4.098687296,0.79,4.08,-26.08,1.08,35.2947588,136.2532633
14.21,8.7,4.192205615,0.81,3.89,-26.26,1.1475,35.2947642,136.2532572
14.266,8.9,4.011886788,0.84,3.76,-26.53,1.1475,35.2947642,136.2532572
14.324,8.96,3.829329486,0.88,3.67,-26.82,1.08,35.2947698,136.2532512
14.381,9.02,3.644551197,0.93,3.56,-27.03,1.1475,35.2947698,136.2532512
14.436,9.03,3.733596009,0.97,3.4,-27.23,1.08,35.2947758,136.2532458
14.493,9.12,3.644551197,1.05,3.22,-27.43,1.08,35.2947758,136.2532458
14.548,9.15,3.551056848,1.12,3.02,-27.68,1.08,35.294782,136.2532398
14.605,9.03,3.553279242,1.18,2.94,-27.91,1.08,35.2947877,136.2532335
14.66,9.05,3.553279242,1.21,2.91,-28.2,1.1475,35.2947877,136.2532335
14.716,9.11,3.553279242,1.25,2.89,-28.51,1.08,35.2947935,136.2532267
14.771,9.12,3.551056848,1.28,2.89,-28.76,1.08,35.2947935,136.2532267
14.829,9.21,3.642325889,1.32,2.92,-29.04,1.1475,35.2947998,136.2532202
14.886,9.18,3.551056848,1.38,3.01,-29.34,1.1475,35.2947998,136.2532202
14.944,9.18,3.462008368,1.43,3.05,-29.61,1.1475,35.2948065,136.2532138
14.998,9.22,3.462008368,1.38,3.03,-29.94,1.08,35.2948122,136.2532073
15.055,9.23,3.464227847,1.05,3.06,-30.2,1.08,35.2948122,136.2532073
15.108,9.32,3.368522008,0.96,3,-30.52,1.1475,35.2948185,136.2532008
15.164,9.28,3.368522008,0.93,2.89,-30.79,1.08,35.2948185,136.2532008
15.22,9.22,3.277256208,0.86,2.79,-31.14,1.1475,35.2948257,136.2531945
15.277,9.07,3.183780751,0.71,3.01,-31.48,1.1475,35.2948257,136.2531945
15.334,9.1,3.279469859,0.62,2.87,-31.77,1.1475,35.2948325,136.2531885
15.389,9.13,3.185991488,0.55,2.79,-32.13,1.1475,35.2948325,136.2531885
15.446,9.09,3.094727849,0.37,2.81,-32.41,1.1475,35.2948395,136.2531825
15.5,8.99,3.096935671,0.24,2.82,-32.76,1.1475,35.2948467,136.2531775
15.557,9.01,3.001260381,0.21,2.71,-33.06,1.1475,35.2948467,136.2531775
15.61,9.1,3.003465289,0.13,2.69,-33.43,1.1475,35.2948533,136.2531713
15.665,9.05,2.910001816,0.02,2.77,-33.74,1.1475,35.2948533,136.2531713
15.722,9.09,2.820943411,-0.09,2.66,-34.1,1.1475,35.2948605,136.2531653
15.779,9.09,2.823142491,-0.18,2.52,-34.47,1.1475,35.2948605,136.2531653
15.95,8.98,2.640619104,-0.47,2.07,-35.49,1.1475,35.2948605,136.2531653
16.007,9.03,2.638425853,-0.55,1.95,-35.79,1.1475,35.294882,136.2531492
16.061,9.12,2.640619104,-0.61,1.82,-36.15,1.08,35.294882,136.2531492
16.117,9.08,2.638425853,-0.66,1.74,-36.45,1.1475,35.2948898,136.2531447
16.173,9.07,2.731880258,-0.75,1.65,-36.81,6.6825,35.2948898,136.2531447
16.229,9.12,2.642812356,-0.84,1.62,-37.17,9.45,35.294897,136.2531385
16.287,9.12,2.460287462,-0.93,1.56,-37.45,9.7875,35.294897,136.2531385
16.401,9.15,2.549359031,-1.11,1.41,-38.1,9.7875,35.294897,136.2531385
16.457,9.17,2.458100038,-1.14,1.43,-38.36,10.42875,35.2949042,136.2531338
16.512,9.14,2.455912615,-1.16,1.47,-38.68,9.21375,35.2949042,136.2531338
16.568,9.06,2.458100038,-1.2,1.42,-38.93,-2.05875,35.2949042,136.2531338
16.624,9.08,2.458100038,-1.25,1.39,-39.21,-3.24,35.2949267,136.253118
16.679,9.07,2.458100038,-1.26,1.37,-39.44,2.97,35.2949267,136.253118
16.737,9.22,2.460287462,-1.24,1.42,-39.72,9.315,35.2949343,136.2531113
16.886,9.06,2.458100038,-1.13,1.62,-40.34,307.125,35.2949343,136.2531113
16.942,9.05,2.460287462,-1.05,1.75,-40.52,2.0925,35.2949343,136.2531113
17.001,9.03,2.547168694,-1.05,1.81,-40.73,9.2475,35.2949577,136.2530957
17.054,8.98,2.458100038,-1,1.99,-40.97,16.065,35.2949577,136.2530957
17.109,8.96,2.549359031,-0.97,2.2,-41.14,17.28,35.2949645,136.2530908
17.164,8.89,2.458100038,-0.99,2.26,-41.28,19.20375,35.2949645,136.2530908
17.22,8.88,2.460287462,-0.7,2.37,-41.43,20.3175,35.2949717,136.253086
17.406,8.83,2.460287462,-0.39,2.7,-41.82,20.62125,35.2949717,136.253086
17.457,8.81,2.460287462,-0.04,2.96,-41.9,20.62125,35.2949717,136.253086
17.514,8.76,2.462474885,0.2,3.04,-41.94,20.21625,35.2949717,136.253086
17.567,8.76,2.460287462,0.4,3.08,-41.94,18.765,35.2949717,136.253086
17.623,8.76,2.460287462,0.52,3.07,-41.95,18.765,35.295001,136.2530715
17.682,8.73,2.460287462,0.58,3.04,-41.95,7.25625,35.295001,136.2530715
17.737,8.78,2.369026635,0.74,3.1,-41.92,-6.44625,35.2950083,136.253068
17.792,8.89,2.369026635,0.78,3.02,-41.87,-5.43375,35.2950083,136.253068
18.007,8.88,2.371211144,1.06,2.82,-41.73,3.51,35.2950083,136.253068
18.065,8.88,2.369026635,1.15,2.77,-41.68,0.405,35.2950083,136.253068
18.119,8.9,2.369026635,1.15,2.77,-41.67,0.4725,35.2950387,136.2530538
18.176,8.8,2.369026635,0.97,2.85,-41.65,0.4725,35.2950387,136.2530538
18.232,8.75,2.369026635,0.88,2.89,-41.65,6.6825,35.2950463,136.253051
18.288,8.94,2.369026635,0.86,2.97,-41.64,7.6275,35.2950463,136.253051
18.346,8.92,2.371211144,0.89,2.98,-41.65,7.6275,35.295053,136.2530473
18.401,8.9,2.369026635,0.8,3.02,-41.66,9.045,35.2950603,136.2530443
18.458,8.9,2.369026635,0.69,3.05,-41.69,11.5425,35.2950603,136.2530443
18.516,8.95,2.369026635,0.66,3.12,-41.73,7.66125,35.2950685,136.2530417
18.57,8.89,2.460287462,0.69,3.21,-41.8,10.53,35.2950685,136.2530417
18.626,8.86,2.460287462,0.72,3.19,-41.86,11.88,35.2950758,136.2530383
18.682,8.86,2.462474885,0.7,3.22,-41.92,15.39,35.2950758,136.2530383
18.739,8.87,2.371211144,0.72,3.25,-41.98,16.5375,35.2950837,136.2530353
18.796,8.86,2.462474885,0.79,3.23,-42.03,17.685,35.2950912,136.2530323
18.851,8.82,2.460287462,0.86,3.27,-42.09,18.8325,35.2950912,136.2530323
18.908,8.82,2.373395654,0.92,3.25,-42.14,12.7575,35.2950987,136.2530295
18.962,8.77,2.371211144,0.92,3.32,-42.22,6.1425,35.2950987,136.2530295
19.02,8.67,2.279948483,0.97,3.33,-42.26,1.4175,35.2951065,136.2530267
19.074,8.85,2.279948483,1.01,3.32,-42.34,-0.405,35.2951065,136.2530267
19.131,8.88,2.277766888,0.99,3.3,-42.41,-0.405,35.2951137,136.2530243
19.186,8.81,2.279948483,0.93,3.33,-42.51,-0.405,35.2951137,136.2530243
19.243,8.77,2.275585292,0.93,3.28,-42.61,-0.405,35.2951203,136.2530218
19.301,8.79,2.277766888,0.96,3.21,-42.7,-0.405,35.2951283,136.2530192
19.358,8.87,2.188686902,0.92,3.16,-42.81,-0.405,35.2951283,136.2530192
19.413,8.95,2.188686902,0.81,3.18,-42.95,-0.405,35.2951358,136.2530173
19.471,8.94,2.277766888,0.71,3.19,-43.07,-0.405,35.2951358,136.2530173
19.524,8.86,2.188686902,0.6,3.22,-43.23,-0.405,35.2951435,136.2530148
19.579,8.85,2.279948483,0.57,3.17,-43.38,-0.405,35.2951435,136.2530148
19.636,8.83,2.188686902,0.46,3.1,-43.57,-0.405,35.2951513,136.2530118
19.692,8.8,2.097426401,0.4,3.09,-43.77,-0.405,35.2951592,136.2530095
19.749,8.73,2.188686902,0.34,3.08,-43.93,-0.405,35.2951592,136.2530095
19.805,8.74,2.186508221,0.29,3.08,-44.14,-0.405,35.2951667,136.2530072
19.862,8.8,2.190865584,0.27,3.03,-44.31,-0.405,35.2951667,136.2530072
19.917,8.74,2.097426401,0.21,3,-44.55,-0.405,35.295174,136.2530043
20.087,8.81,2.099602169,0.18,2.89,-45.26,-0.405,35.295174,136.2530043
20.141,8.74,2.099602169,0.23,2.91,-45.47,307.09125,35.295174,136.2530043
20.199,8.84,2.097426401,0.25,2.82,-45.74,-0.405,35.295174,136.2530043
20.254,8.77,2.008339834,0.08,2.75,-46,-0.405,35.295174,136.2530043
20.311,8.74,1.91490864,0.05,2.73,-46.25,-0.405,35.2952037,136.2529957
20.366,8.83,1.91490864,0.06,2.71,-46.54,-0.405,35.2952037,136.2529957
20.424,8.74,2.00616698,0.08,2.78,-46.78,-0.405,35.2952112,136.2529933
20.478,8.67,2.008339834,-0.05,2.88,-47.31,-0.405,35.2952112,136.2529933
20.59,8.68,2.00616698,-0.05,2.88,-47.62,-247.7925,35.2952112,136.2529933
20.646,8.66,1.9127387,-0.05,2.88,-47.94,-0.405,35.2952112,136.2529933
20.703,8.6,1.91490864,-0.07,2.88,-48.2,-0.405,35.2952112,136.2529933
20.76,8.5,2.008339834,-0.1,2.9,-48.51,-0.405,35.2952112,136.2529933
20.816,8.5,2.003994127,-0.1,2.9,-48.78,-0.405,35.2952408,136.2529858
20.871,8.4,1.821484352,-0.11,2.93,-49.1,-0.405,35.2952408,136.2529858
20.927,8.47,1.821484352,-0.11,2.95,-49.37,-0.405,35.2952483,136.252984
21.077,8.5,1.825818405,-0.15,3.08,-50.17,-247.7925,35.2952483,136.252984
21.131,8.57,1.823651378,-0.19,3.09,-50.5,0.8775,35.2952483,136.252984
21.186,8.46,1.91490864,-0.23,3.1,-50.78,9.315,35.2952483,136.252984
21.242,8.58,1.823651378,-0.28,3.11,-51.1,16.74,35.2952695,136.2529793
21.298,8.57,1.823651378,-0.34,3.12,-51.41,18.19125,35.2952767,136.252978
21.356,8.48,1.821484352,-0.34,3.14,-51.64,19.00125,35.2952767,136.252978
21.413,8.33,1.91056876,-0.1,3.24,-51.89,-247.7925,35.2952842,136.2529763
21.597,8.27,1.823651378,-0.08,3.29,-52.57,-247.7925,35.2952842,136.2529763
21.654,8.51,1.825818405,0.18,3.33,-52.75,20.25,35.2952842,136.2529763
21.709,8.47,1.73455931,0.29,3.38,-52.85,20.55375,35.2952842,136.2529763
21.765,8.42,1.641140096,0.38,3.4,-52.96,20.55375,35.2952842,136.2529763
21.821,8.39,1.638978897,0.43,3.43,-53.04,20.55375,35.2953123,136.2529697
21.878,8.35,1.638978897,0.48,3.38,-53.09,19.60875,35.2953123,136.2529697
21.932,8.31,1.638978897,0.68,3.32,-53.14,13.4325,35.2953193,136.2529687
22.146,8.32,1.55204436,0.99,3.4,-53.16,9.1125,35.2953193,136.2529687
22.201,8.29,1.645462494,1.03,3.52,-53.16,-247.7925,35.2953193,136.2529687
22.258,8.22,1.641140096,1.07,3.65,-53.1,307.09125,35.2953193,136.2529687
22.315,8.21,1.736723422,1.16,3.77,-53.03,1.215,35.2953467,136.2529633
22.372,8.33,1.73455931,1.23,3.91,-53.01,1.215,35.2953467,136.2529633
22.425,8.34,1.732395197,1.11,3.97,-53,1.215,35.2953535,136.2529622
22.482,8.33,1.730231085,1.07,4,-53,1.215,35.2953535,136.2529622
22.535,8.26,1.73455931,1.1,4.14,-52.99,1.215,35.2953602,136.2529612
22.592,8.25,1.638978897,1.17,4.23,-52.98,1.215,35.2953672,136.25296
22.648,8.16,1.730231085,1.23,4.36,-52.98,1.215,35.2953672,136.25296
22.706,8.11,1.730231085,1.27,4.34,-52.99,1.215,35.295374,136.2529598
22.761,8.1,1.645462494,1.25,4.3,-52.99,1.215,35.295374,136.2529598
22.817,8.17,1.732395197,1.07,3.98,-52.97,1.215,35.2953808,136.2529597
22.874,8.2,1.641140096,1.03,3.74,-52.98,1.215,35.2953808,136.2529597
22.931,8.29,1.549886075,1.05,3.63,-53.04,1.215,35.295388,136.252959
22.985,8.17,1.641140096,1.11,3.48,-53.1,1.215,35.295388,136.252959
23.041,8.06,1.641140096,1.12,3.3,-53.16,1.215,35.2953953,136.2529585
23.097,8.16,1.54772779,1.12,3.17,-53.22,1.215,35.2954032,136.2529583
23.154,8.24,1.458633133,1.12,3.05,-53.29,1.215,35.2954032,136.2529583
23.212,8.09,1.369533729,1.14,2.88,-53.4,1.215,35.2954103,136.2529582
23.268,8.06,1.367381272,1.14,2.72,-53.5,1.215,35.2954103,136.2529582
23.325,8.16,1.458633133,1.15,2.56,-53.57,1.215,35.2954173,136.2529575
23.378,8.1,1.367381272,1.15,2.4,-53.68,1.215,35.2954173,136.2529575
23.435,8.26,1.458633133,1.15,2.22,-53.78,1.215,35.2954245,136.2529572
23.489,8.16,1.456477762,1.16,2.04,-53.9,1.215,35.2954245,136.2529572
23.545,8.23,1.367381272,1.15,1.94,-54.01,1.215,35.2954315,136.2529563
23.602,8.29,1.187027418,1.12,1.85,-54.14,1.215,35.2954383,136.2529553
23.659,8.32,1.456477762,1.13,1.76,-54.28,1.215,35.2954383,136.2529553
23.717,8.3,1.27613049,1.11,1.73,-54.4,1.215,35.2954448,136.2529543
23.774,8.26,1.458633133,1.09,1.63,-54.54,1.215,35.2954448,136.2529543
23.829,8.2,1.367381272,1.1,1.6,-54.68,1.215,35.2954512,136.2529535
23.886,8.09,1.369533729,1.11,1.6,-54.8,1.215,35.2954512,136.2529535
23.94,8.15,1.27613049,1.1,1.62,-54.94,1.215,35.2954583,136.252954
23.996,8.19,1.27613049,1.05,1.73,-55.07,1.215,35.2954653,136.2529537
24.052,8.23,1.371686187,0.98,1.88,-55.23,1.215,35.2954653,136.2529537
24.108,8.03,1.369533729,0.99,1.88,-55.38,-247.7925,35.2954727,136.2529543
24.279,8.07,1.462943876,0.86,2.05,-55.79,1.215,35.2954727,136.2529543
24.335,8.12,1.458633133,0.79,2.13,-55.96,-247.7925,35.2954868,136.2529533
24.39,8.04,1.462943876,0.74,2.21,-56.13,307.09125,35.2954868,136.2529533
24.445,7.93,1.549886075,0.67,2.24,-56.27,1.215,35.2954935,136.2529525
24.502,8,1.554202645,0.66,2.23,-56.43,1.215,35.2954993,136.252952
24.559,7.96,1.458633133,0.61,2.23,-56.57,1.215,35.2954993,136.252952
24.617,8.03,1.371686187,0.53,2.25,-56.76,1.215,35.2955063,136.2529518
24.731,8.41,1.367381272,0.49,2.22,-57.08,1.215,35.2955063,136.2529518
24.785,8.42,1.369533729,0.42,2.17,-57.26,307.09125,35.2955063,136.2529518
24.841,8.46,1.280429578,0.38,2.11,-57.42,1.215,35.2955203,136.2529517
24.897,8.41,1.369533729,0.3,2.04,-57.6,1.215,35.295527,136.2529513
24.954,8.35,1.367381272,0.24,2.07,-57.79,1.215,35.295527,136.2529513
25.009,8.3,1.371686187,0.19,2.15,-57.94,1.215,35.295533,136.2529505
25.067,8.38,1.369533729,0.15,2.13,-58.14,1.215,35.295533,136.2529505
25.217,8.24,1.189174049,-0.06,2.1,-58.63,1.215,35.2955393,136.2529495
25.271,8.32,1.278280034,-0.12,2.2,-58.79,1.215,35.2955393,136.2529495
25.329,8.36,1.278280034,-0.15,2.14,-58.97,1.215,35.295552,136.2529477
25.383,8.32,1.278280034,-0.16,2.05,-59.15,1.215,35.295552,136.2529477
25.438,8.31,1.187027418,-0.16,1.99,-59.3,1.215,35.295559,136.2529488
25.494,8.28,1.278280034,-0.18,1.94,-59.45,1.215,35.295566,136.2529497
25.549,8.24,1.189174049,-0.21,2.01,-59.64,1.215,35.295566,136.2529497
25.606,8.19,1.187027418,-0.25,1.97,-60.19,-247.7925,35.295566,136.2529497
25.791,8.19,1.189174049,-0.23,2.03,-60.33,1.215,35.295566,136.2529497
25.845,8.22,1.184880788,-0.24,2.01,-60.47,1.215,35.295566,136.2529497
25.899,8.2,1.097919599,-0.29,1.95,-60.63,1.215,35.2955927,136.2529525
25.955,8.18,1.187027418,-0.29,1.92,-60.75,1.215,35.2955927,136.2529525
26.012,8.21,1.187027418,-0.25,1.96,-60.91,1.215,35.2956,136.2529533
26.07,8.23,1.187027418,-0.25,1.97,-61.07,1.215,35.2956,136.2529533
26.126,8.09,1.278280034,-0.28,1.97,-61.19,1.215,35.2956075,136.252955
26.34,8.04,1.002384623,-0.25,1.92,-61.71,-247.7925,35.2956075,136.252955
26.396,8.03,1.093632165,-0.26,1.88,-61.82,1.215,35.2956075,136.252955
26.45,8.05,1.095775882,-0.3,1.84,-61.95,1.215,35.2956075,136.252955
26.508,8.06,1.093632165,-0.39,1.77,-62.1,1.215,35.2956333,136.252958
26.563,8.1,1.184880788,-0.43,1.71,-62.2,1.215,35.2956333,136.252958
26.622,8.09,1.095775882,-0.45,1.65,-62.33,1.215,35.2956397,136.2529593
26.678,8.05,1.184880788,-0.47,1.56,-62.47,1.215,35.2956397,136.2529593
26.735,8.03,1.273980946,-0.48,1.54,-62.59,1.215,35.2956465,136.25296
26.789,8.02,1.184880788,-0.48,1.48,-62.74,1.215,35.2956465,136.25296
26.847,8.01,1.189174049,-0.41,1.42,-62.87,1.215,35.295653,136.252961
26.901,7.97,1.093632165,-0.35,1.38,-62.99,1.215,35.2956597,136.2529628
26.956,7.96,1.093632165,-0.34,1.33,-63.1,1.215,35.2956597,136.2529628
27.013,7.98,1.182734157,-0.37,1.39,-63.24,1.215,35.2956662,136.2529643
27.07,7.95,1.093632165,-0.38,1.41,-63.38,1.215,35.2956662,136.2529643
27.126,7.93,1.004525426,-0.38,1.38,-63.49,1.215,35.2956728,136.252966
27.182,7.98,1.097919599,-0.35,1.35,-63.61,1.215,35.2956728,136.252966
27.239,7.97,1.095775882,-0.34,1.33,-63.71,1.215,35.2956795,136.2529675
27.293,7.98,1.093632165,-0.33,1.43,-63.84,1.215,35.2956857,136.2529688
27.35,7.96,1.095775882,-0.35,1.5,-63.94,1.215,35.2956857,136.2529688
27.404,7.94,1.095775882,-0.35,1.5,-64.08,1.215,35.2956918,136.25297
27.46,7.96,1.091488448,-0.33,1.56,-64.18,1.215,35.2956918,136.25297
27.516,7.91,1.182734157,-0.29,1.62,-64.3,1.215,35.2956982,136.2529715
27.573,7.9,1.091488448,-0.29,1.68,-64.42,1.215,35.2956982,136.2529715
27.631,7.89,1.093632165,-0.28,1.69,-64.52,1.215,35.2957047,136.2529733
27.688,7.86,1.091488448,-0.28,1.73,-64.64,1.215,35.2957047,136.2529733
27.742,7.89,1.182734157,-0.29,1.76,-64.77,1.215,35.295711,136.252975
27.799,7.89,1.091488448,-0.29,1.81,-64.87,1.215,35.2957173,136.2529768
27.853,7.87,1.091488448,-0.29,1.83,-64.96,1.215,35.2957173,136.2529768
27.909,7.84,1.093632165,-0.28,1.84,-65.07,1.215,35.2957235,136.2529785
27.966,7.79,1.091488448,-0.28,1.88,-65.2,1.215,35.2957235,136.2529785
28.021,7.81,1.091488448,-0.29,1.89,-65.3,1.215,35.2957297,136.2529803
28.079,7.82,1.093632165,-0.28,1.87,-65.41,1.215,35.2957297,136.2529803
28.136,7.84,1.095775882,-0.27,1.87,-65.53,1.215,35.2957355,136.2529835
28.192,7.78,1.091488448,-0.27,1.87,-65.63,1.215,35.2957355,136.2529835
28.247,7.78,1.091488448,-0.25,1.99,-65.76,1.215,35.2957418,136.2529857
28.417,7.7,1.000243819,-0.25,1.9,-66.1,1.215,35.2957418,136.2529857
28.47,7.75,1.002384623,-0.24,1.88,-66.21,-247.7925,35.2957418,136.2529857
28.528,7.7,0.91327605,-0.26,1.82,-66.33,307.09125,35.2957605,136.2529942
28.585,7.74,0.91113816,-0.25,1.78,-66.44,1.215,35.2957605,136.2529942
28.64,7.79,0.91327605,-0.25,1.7,-66.56,1.215,35.2957667,136.252996
28.695,7.75,0.8177578,-0.24,1.73,-66.66,1.215,35.2957727,136.2529983
28.752,7.71,1.002384623,-0.24,1.65,-66.8,1.215,35.2957727,136.2529983
28.807,7.83,1.093632165,-0.26,1.46,-67.04,1.215,35.2957727,136.2529983
28.919,7.72,1.002384623,-0.27,1.38,-67.17,1.215,35.2957787,136.2530007
28.976,7.73,0.91113816,-0.27,1.38,-67.28,862.41375,35.2957787,136.2530007
29.034,7.74,1.091488448,-0.26,1.47,-67.42,1.215,35.2957903,136.2530055
29.092,7.63,1.093632165,-0.26,1.47,-67.55,1.215,35.2957903,136.2530055
29.147,7.7,1.091488448,-0.26,1.45,-67.67,1.215,35.2957967,136.2530083
29.202,7.7,1.091488448,-0.25,1.29,-67.8,1.215,35.2958025,136.2530117
29.257,7.5,0.91327605,-0.24,1.25,-67.92,1.215,35.2958025,136.2530117
29.407,7.54,1.002384623,-0.24,1.16,-68.26,-247.7925,35.2958025,136.2530117
29.462,7.65,1.002384623,-0.23,1.11,-68.39,-247.7925,35.2958025,136.2530117
29.519,7.57,1.000243819,-0.23,1.09,-68.5,307.09125,35.295821,136.2530197
29.574,7.45,0.909000269,-0.21,1.08,-68.63,1.215,35.295821,136.2530197
29.631,7.45,1.002384623,-0.22,1.12,-68.77,1.215,35.2958267,136.253022
29.688,7.35,0.91113816,-0.22,1.14,-68.89,1.215,35.2958267,136.253022
29.745,7.72,1.002384623,-0.2,1.1,-69.02,-247.7925,35.2958325,136.2530248
29.928,7.65,0.91327605,-0.24,1.05,-69.44,1.215,35.2958325,136.2530248
29.987,7.64,1.002384623,-0.24,1.04,-69.58,307.09125,35.2958325,136.2530248
30.042,7.66,0.91113816,-0.24,1,-69.73,1.215,35.2958497,136.2530335
30.099,7.62,0.91327605,-0.24,0.96,-69.85,1.215,35.2958553,136.253036
30.153,7.6,0.91327605,-0.24,0.96,-70,1.215,35.2958553,136.253036
30.21,7.67,0.91113816,-0.25,0.92,-70.12,1.215,35.2958617,136.25304
30.265,7.56,0.91113816,-0.25,0.91,-70.26,1.215,35.2958617,136.25304
30.479,7.51,0.819892776,-0.25,0.98,-70.73,-247.7925,35.2958617,136.25304
30.535,7.47,0.819892776,-0.26,0.98,-70.84,307.09125,35.2958617,136.25304
30.591,7.44,0.91113816,-0.27,1.01,-70.93,1.215,35.2958843,136.2530512
30.648,7.49,0.819892776,-0.27,1.05,-71.05,1.215,35.2958843,136.2530512
30.704,7.49,0.822027753,-0.26,1.04,-71.16,1.215,35.29589,136.2530547
30.761,7.46,0.8177578,-0.26,1.05,-71.24,1.215,35.29589,136.2530547
30.815,7.5,0.819892776,-0.27,1.05,-71.34,1.215,35.2958957,136.2530578
30.87,7.53,0.728648473,-0.27,1.07,-71.42,1.215,35.2958957,136.2530578
30.927,7.49,0.728648473,-0.27,1.12,-71.53,1.215,35.2959012,136.2530612
30.984,7.53,0.639534399,-0.28,1.15,-71.62,1.215,35.2959012,136.2530612
31.042,7.52,0.639534399,-0.28,1.16,-71.69,1.215,35.2959067,136.2530645
31.098,7.53,0.730780536,-0.28,1.16,-71.78,1.215,35.2959125,136.2530675
31.153,7.57,0.637405249,-0.28,1.16,-71.85,1.215,35.2959125,136.2530675
31.209,7.56,0.548289341,-0.28,1.19,-71.93,1.215,35.2959178,136.2530708
31.265,7.55,0.639534399,-0.29,1.2,-72.01,1.215,35.2959178,136.2530708
31.323,7.56,0.546163104,-0.28,1.22,-72.05,1.215,35.2959238,136.2530743
31.38,7.52,0.637405249,-0.28,1.28,-72.12,1.215,35.2959238,136.2530743
31.436,7.48,0.637405249,-0.27,1.35,-72.18,1.215,35.29593,136.253078
31.493,7.45,0.639534399,-0.29,1.43,-72.24,1.215,35.2959358,136.2530815
31.55,7.43,0.550415578,-0.28,1.53,-72.28,1.215,35.2959358,136.2530815
31.606,7.4,0.639534399,-0.27,1.61,-72.32,1.215,35.2959415,136.2530855
31.659,7.31,0.546163104,-0.27,1.72,-72.36,1.215,35.2959415,136.2530855
31.716,7.3,0.637405249,-0.25,1.83,-72.4,1.215,35.2959468,136.253089
31.77,7.33,0.639534399,-0.26,1.96,-72.44,1.215,35.2959468,136.253089
31.827,7.38,0.639534399,-0.22,2.02,-72.43,1.215,35.2959525,136.2530928
31.883,7.41,0.635276099,-0.16,2.1,-72.44,1.215,35.2959525,136.2530928
31.941,7.43,0.548289341,-0.11,2.14,-72.45,1.215,35.2959578,136.2530967
31.997,7.44,0.45492204,-0.05,2.24,-72.5,1.215,35.2959633,136.2531007
32.055,7.44,0.548289341,-0.01,2.29,-72.52,1.215,35.2959633,136.2531007
32.109,7.45,0.548289341,0.02,2.35,-72.52,1.215,35.2959692,136.2531052
32.167,7.48,0.550415578,0.02,2.37,-72.54,1.215,35.2959692,136.2531052
32.222,7.48,0.361561644,0.06,2.34,-72.57,1.215,35.2959743,136.2531088
32.279,7.39,0.363682054,0.06,2.23,-72.62,1.215,35.2959743,136.2531088
32.335,7.34,0.272443149,0.09,2.1,-72.64,1.215,35.29598,136.2531132
32.393,7.37,0.45492204,0.11,1.93,-72.65,1.215,35.29598,136.2531132
32.449,7.22,0.272443149,0.13,1.72,-72.68,1.215,35.2959857,136.2531168
32.619,7.25,0.361561644,0.26,1.09,-72.8,1.215,35.2959857,136.2531168
32.674,7.26,0.365802465,0.33,0.87,-72.85,1.215,35.2959857,136.2531168
32.731,7.29,0.363682054,0.37,0.6,-72.9,1.215,35.2959857,136.2531168
32.788,7.29,0.365802465,0.4,0.36,-72.95,1.215,35.2959857,136.2531168
32.845,7.29,0.363682054,0.42,0.03,-73.01,1.215,35.2960082,136.2531322
32.901,7.36,0.365802465,0.43,-0.34,-73.05,1.215,35.2960135,136.2531372
32.957,7.33,0.274560646,0.45,-0.64,-73.1,-247.7925,35.2960135,136.2531372
33.071,7.36,0.272443149,0.43,-1.35,-73.23,-247.7925,35.2960135,136.2531372
33.127,7.35,0.276678143,0.29,-1.67,-73.32,1.215,35.2960135,136.2531372
33.181,7.28,0.183319906,0.22,-2.02,-73.39,1.215,35.2960135,136.2531372
33.237,7.35,0.18543449,0.21,-2.34,-73.46,1.215,35.2960295,136.2531508
33.295,7.3,0.18543449,0.19,-2.7,-73.55,1.215,35.2960345,136.2531553
33.352,7.31,0.272443149,0.23,-2.81,-73.62,1.215,35.2960345,136.2531553
33.41,7.24,0.18543449,0.24,-3.03,-73.67,1.215,35.2960397,136.25316
33.561,6.94,0.546163104,0.28,-3.71,-73.91,-247.7925,35.2960397,136.25316
33.615,6.81,0.91541394,0.25,-3.91,-73.98,1.215,35.2960397,136.25316
33.671,6.76,0.550415578,0.27,-3.97,-74.05,-247.7925,35.2960397,136.25316
33.725,6.78,0.826297706,0.28,-4.1,-74.14,1.215,35.2960397,136.25316
33.781,6.9,0.550415578,0.3,-4.11,-74.22,1.215,35.2960397,136.25316
33.839,6.85,0.459168686,0.33,-4.1,-74.32,1.215,35.296059,136.2531777
33.895,6.89,0.639534399,0.29,-4.18,-74.4,1.215,35.2960637,136.2531817
34.078,7.04,0.82416273,0.29,-4.18,-74.63,1.215,35.2960637,136.2531817
34.131,6.91,0.82416273,0.34,-4.05,-74.72,1.215,35.2960637,136.2531817
34.188,6.74,0.91541394,0.38,-3.81,-74.83,1.215,35.2960637,136.2531817
34.245,6.59,0.82416273,0.33,-3.29,-74.91,1.215,35.2960637,136.2531817
34.302,6.51,0.91755183,0.36,-3.01,-75,1.215,35.2960815,136.2531972
34.357,6.64,1.00666623,0.39,-2.75,-75.1,1.215,35.2960815,136.2531972
34.415,6.65,1.004525426,0.4,-2.57,-75.2,1.215,35.2960857,136.2532008
34.469,6.7,1.00666623,0.41,-1.85,-75.65,-247.7925,35.2960857,136.2532008
34.681,6.69,1.187027418,0.42,-1.63,-75.79,1.215,35.2960857,136.2532008
34.737,6.63,1.097919599,0.44,-1.4,-75.93,1.215,35.2960857,136.2532008
34.793,6.58,1.097919599,0.44,-1.17,-76.05,1.215,35.2961028,136.2532177
34.852,6.62,1.00666623,0.46,-0.93,-76.2,1.215,35.2961028,136.2532177
34.908,6.66,0.91541394,0.47,-0.61,-76.34,1.215,35.2961068,136.2532208
34.965,6.72,0.91327605,0.48,-0.4,-76.46,1.215,35.2961068,136.2532208
35.02,6.63,1.097919599,0.47,-0.22,-76.62,1.215,35.296111,136.2532255
35.077,6.59,1.095775882,0.48,-0.01,-76.75,1.215,35.296111,136.2532255
35.131,6.54,1.189174049,0.49,0.15,-76.9,1.215,35.2961157,136.2532297
35.186,6.49,0.91327605,0.52,0.32,-77.03,1.215,35.2961157,136.2532297
35.242,6.48,0.91541394,0.52,0.53,-77.18,1.215,35.2961198,136.2532342
35.299,6.64,1.097919599,0.49,0.69,-77.32,1.215,35.2961243,136.2532392
35.356,6.6,1.189174049,0.44,0.8,-77.45,1.215,35.2961243,136.2532392
35.412,6.65,1.004525426,0.41,0.91,-77.61,1.215,35.2961288,136.2532442
35.469,6.71,0.548289341,0.43,0.83,-77.74,1.215,35.2961288,136.2532442
35.524,6.5,0.82416273,0.41,0.86,-77.87,1.215,35.2961332,136.2532492
35.58,6.51,0.730780536,0.43,0.69,-77.97,1.215,35.2961332,136.2532492
35.634,6.58,0.82416273,0.45,0.55,-78.12,1.215,35.2961373,136.2532537
35.691,6.51,0.91327605,0.44,0.51,-78.27,1.215,35.2961373,136.2532537
35.747,6.61,0.459168686,0.49,0.43,-78.38,1.215,35.2961417,136.253258
35.805,6.52,0.8177578,0.48,0.42,-78.5,1.215,35.2961458,136.2532623
35.861,6.56,0.639534399,0.48,0.29,-78.64,1.215,35.2961458,136.2532623
35.917,6.77,0.641663549,0.44,0.22,-78.76,1.215,35.2961502,136.2532663
35.972,6.7,0.641663549,0.43,0.04,-78.89,1.215,35.2961502,136.2532663
36.03,6.56,0.550415578,0.41,-0.22,-78.98,1.215,35.296154,136.2532708
36.084,6.66,0.641663549,0.38,-0.46,-79.11,1.215,35.296154,136.2532708
36.139,6.53,0.641663549,0.34,-0.72,-79.22,1.215,35.2961582,136.2532745
36.195,6.57,0.459168686,0.36,-0.91,-79.36,1.215,35.296162,136.2532793
36.251,6.67,0.732912599,0.37,-1.12,-79.46,1.215,35.296162,136.2532793
36.31,6.62,0.639534399,0.35,-1.38,-79.59,1.215,35.2961665,136.2532845
36.366,6.61,0.276678143,0.3,-1.5,-79.71,1.215,35.2961665,136.2532845
36.422,6.62,0.550415578,0.24,-1.66,-79.8,1.215,35.2961707,136.2532882
36.476,6.59,0.548289341,0.19,-1.83,-79.91,1.215,35.2961707,136.2532882
36.533,6.45,0.457045363,0.14,-1.93,-79.98,1.215,35.2961745,136.2532928
36.587,6.44,0.548289341,0.11,-2.16,-80.08,1.215,35.2961745,136.2532928
36.758,6.34,0.459168686,0.05,-2.97,-80.33,-247.7925,35.296179,136.2532972
36.814,6.41,0.46129201,0.03,-3.22,-80.39,1.215,35.296179,136.2532972
36.87,6.29,0.457045363,0.03,-3.38,-80.45,1.215,35.296179,136.2532972
36.926,6.06,0.639534399,0.01,-3.47,-80.51,1.215,35.2961907,136.2533107
36.984,6.06,0.274560646,0.01,-3.53,-80.57,1.215,35.2961907,136.2533107
37.038,6.24,0.370043285,0.02,-3.44,-80.62,1.215,35.2961943,136.2533153
37.094,6.09,0.459168686,0.04,-3.38,-80.63,1.215,35.2961977,136.2533202
37.21,6.25,0.822027753,0.11,-3.37,-80.66,-247.7925,35.2961977,136.2533202
37.265,6.56,0.728648473,0.13,-3.34,-80.7,1.215,35.2961977,136.2533202
37.324,6.29,0.367922875,0.17,-3.3,-80.69,1.215,35.2961977,136.2533202
37.377,6.46,0.459168686,0.18,-3.21,-80.69,1.215,35.2961977,136.2533202
37.434,6.43,0.732912599,0.21,-3.2,-80.69,1.215,35.2962085,136.2533337
37.489,6.35,0.639534399,0.23,-3.11,-80.7,1.215,35.2962085,136.2533337
37.546,6.35,0.732912599,0.23,-3.01,-80.7,1.215,35.2962118,136.2533388
37.602,6.32,0.459168686,0.12,-2.98,-80.71,1.215,35.2962118,136.2533388
37.75,6.25,0.459168686,0.12,-2.67,-80.71,1.215,35.2962118,136.2533388
37.805,6.26,0.639534399,0.13,-2.46,-80.71,1.215,35.2962228,136.2533525
37.863,6.37,0.641663549,0.13,-2.3,-80.71,1.215,35.2962228,136.2533525
37.92,6.41,0.643792699,0.14,-2.16,-80.71,1.215,35.2962267,136.2533572
37.978,6.41,0.552541814,0.14,-2.08,-80.71,1.215,35.2962267,136.2533572
38.033,6.43,0.548289341,0.14,-1.99,-80.71,1.215,35.29623,136.2533618
38.089,6.4,0.276678143,0.17,-1.94,-80.71,1.215,35.29623,136.2533618
38.276,6.31,0.459168686,0.2,-1.74,-80.69,307.09125,35.29623,136.2533618
38.331,6.31,0.546163104,0.19,-1.74,-80.69,1.215,35.2962403,136.2533762
38.388,6.42,0.637405249,0.2,-1.77,-80.69,1.215,35.2962403,136.2533762
38.443,6.41,0.459168686,0.2,-1.72,-80.69,1.215,35.2962438,136.2533808
38.5,6.4,0.548289341,0.22,-1.69,-80.69,1.215,35.2962467,136.253386
38.555,6.39,0.459168686,0.23,-1.66,-80.69,1.215,35.2962467,136.253386
38.612,6.27,0.367922875,0.25,-1.71,-80.69,1.215,35.2962503,136.2533908
38.829,6.32,0.189663657,0.33,-1.95,-80.7,1.215,35.2962503,136.2533908
38.884,6.39,0.276678143,0.34,-1.98,-80.7,1.215,35.2962503,136.2533908
38.942,6.36,0.370043285,0.36,-2.03,-80.7,1.215,35.2962605,136.2534053
38.997,6.28,0.187549074,0.31,-2.14,-80.71,1.215,35.2962642,136.25341
39.053,6.27,0.187549074,0.3,-2.21,-80.71,1.215,35.2962642,136.25341
39.109,6.39,0.096303588,0.35,-2.34,-80.71,1.215,35.2962675,136.2534152
39.167,6.44,0.098415258,0.37,-2.44,-80.71,1.215,35.2962675,136.2534152
39.223,6.2,0.187549074,0.32,-2.53,-80.71,1.215,35.296271,136.2534202
39.281,6.19,0.187549074,0.24,-2.67,-80.72,1.215,35.296271,136.2534202
39.334,6.18,0.187549074,0.21,-2.8,-80.72,1.215,35.2962745,136.253425
39.391,6.2,0.094191917,0.22,-2.85,-80.72,1.215,35.2962745,136.253425
39.446,6.03,0.098415258,0.26,-2.92,-80.72,1.215,35.2962782,136.2534298
39.502,6,0.007167939,0.29,-2.97,-80.72,1.215,35.2962817,136.2534348
39.559,6.05,0.007167939,0.29,-3.04,-80.72,1.215,35.2962817,136.2534348
39.615,6.05,0.007167939,0.3,-3.07,-80.72,1.215,35.2962855,136.2534395
39.672,6.2,-0.086184146,0.32,-3.11,-80.72,1.215,35.2962855,136.2534395
39.727,6.19,-0.084078301,0.34,-3.11,-80.72,1.215,35.2962897,136.2534447
39.784,6.19,-0.179529325,0.35,-3.13,-80.72,1.215,35.2962897,136.2534447
39.84,6.3,-0.177426393,0.34,-3.15,-80.72,1.215,35.296294,136.2534497
39.896,6.3,-0.179529325,0.32,-3.17,-80.73,1.215,35.2962972,136.2534545
39.952,6.22,-0.268667561,0.3,-3.22,-80.73,1.215,35.2962972,136.2534545
40.01,6.23,-0.177426393,0.3,-3.22,-80.73,1.215,35.2963005,136.253459
40.066,6.2,-0.27076758,0.29,-3.18,-80.73,1.215,35.2963005,136.253459
40.124,6.14,-0.181632256,0.3,-3.16,-80.73,1.215,35.296304,136.2534635
40.18,6.27,-0.268667561,0.27,-3.14,-80.73,1.215,35.296304,136.2534635
40.235,6.37,-0.27076758,0.25,-3.15,-80.73,1.215,35.2963078,136.2534685
40.29,6.26,-0.357810544,0.23,-3.11,-80.74,1.215,35.2963113,136.2534732
40.348,6.12,-0.451146659,0.2,-3.09,-80.74,1.215,35.2963113,136.2534732
40.404,6.16,-1.45470452,0.19,-3.07,-80.74,1.215,35.2963148,136.2534777
40.46,6.27,-1.183090763,0.18,-2.94,-80.74,1.215,35.2963148,136.2534777
40.517,5.97,-2,0.17,-2.84,-80.74,1.215,35.2963192,136.2534825
40.575,6.13,-2,0.16,-2.72,-80.75,1.215,35.2963192,136.2534825
40.632,6.03,-1.908725357,0.14,-2.38,-80.79,-1.1475,35.296323,136.2534868
40.688,6.01,-1.545820889,0.12,-2.53,-80.71,-1.1475,35.296323,136.2534868
40.745,5.79,-2,0.11,-2.27,-80.67,-1.08,35.2963272,136.2534912
40.799,5.36,1.558207749,-0.11,-1.95,-80.58,-0.6075,35.2963272,136.2534912
40.966,5.11,0.558370366,-0.21,-2.08,-80.5,-0.54,35.2963272,136.2534912
