Time,Altitude,Airspeed,Roll,Pitch,Yaw,Rudder,AoS
0,13.03,0.38,-1.59,-0.79,-0.79,-0.03375,-22.94
0.057,13.09,0.42,-1.59,-0.76,-0.79,-0.10125,-22.94
0.115,13.07,0.71,-1.58,-0.75,-0.79,-0.03375,-22.94
0.167,13.12,0.54,-1.58,-0.74,-0.79,-0.03375,-22.94
0.225,13.01,0.45,-1.58,-0.74,-0.79,0,-22.94
0.282,13.14,0.3,-1.58,-0.75,-0.79,-0.03375,-22.94
0.335,13.05,0.57,-1.58,-0.75,-0.79,-0.0675,-22.94
0.394,13.08,0.73,-1.57,-0.79,-0.79,-0.10125,-22.94
0.447,13.05,0.54,-1.53,-0.93,-0.8,-0.03375,-22.94
0.505,13.06,0.48,-1.53,-0.93,-0.8,-0.0675,-22.94
0.557,13.07,0.75,-1.53,-1.03,-0.8,-0.10125,-22.94
0.615,13.1,0.45,-1.52,-1.03,-0.8,-0.10125,-22.94
0.672,13.07,0.69,-1.52,-1.02,-0.81,-0.03375,-22.94
0.726,13.08,0.59,-1.51,-1.31,-0.81,-0.135,-22.94
0.784,13.02,0.87,-1.45,-1.38,-0.81,-0.03375,-22.94
0.836,13.1,0.73,-1.39,-1.73,-0.83,-0.03375,-22.94
0.893,13.07,1,-1.36,-1.77,-0.88,-0.0675,-22.94
0.945,13.08,1.24,-1.4,-1.78,-0.96,-0.03375,-22.94
1.003,13.1,1.34,-1.4,-1.96,-1.05,-0.0675,-22.94
1.055,13.15,1.58,-1.37,-2.32,-1.1,-0.03375,-22.76
1.114,13.13,1.84,-1.31,-2.85,-1.25,-0.10125,-22.06
1.171,13.07,2.02,-1.18,-3.07,-1.38,-0.03375,-21.97
1.225,13.07,2.16,-1.09,-3.3,-1.59,-0.0675,-22.06
1.282,12.8,2.39,-1.11,-3.26,-1.75,-0.03375,-21.71
1.334,13.6,2.7,-1.12,-3.27,-1.83,-0.10125,-21.09
1.392,13.96,3.04,-1.13,-3.13,-1.9,0,-18.81
1.443,13.74,3.12,-1.1,-2.41,-1.76,0,-17.93
1.5,13.09,3.3,-1.03,-1.76,-1.56,-0.16875,-17.75
1.554,12.3,3.31,-1.01,-1.45,-1.72,-0.10125,-17.49
1.612,14.26,3.58,-1.27,-2.2,-1.82,-0.10125,-15.2
1.67,13.63,3.98,-1.1,-2.19,-1.96,-0.0675,-12.48
1.722,13.23,4.12,-0.79,-2.22,-1.98,-0.10125,-11.95
1.78,12.77,4.35,-0.49,-1.56,-2.3,-0.10125,-11.95
1.833,13.17,4.41,-0.6,-1.33,-2.21,-0.0675,-12.83
1.89,14.51,4.41,-0.92,-1.09,-2.18,-0.10125,-12.04
1.941,13,4.72,-1.12,-0.43,-2.02,-0.0675,-10.46
1.994,12.63,4.61,-0.83,-0.34,-2.05,-0.10125,-10.1
2.051,12.87,4.79,-0.83,-0.7,-2.15,0.03375,-10.63
2.106,14.2,4.96,-1.06,-0.48,-2.21,-0.03375,-11.6
2.16,13.22,5.17,-0.59,-0.19,-2.36,-0.03375,-8.26
2.217,12.82,5.22,-0.28,-0.17,-2.55,-0.03375,-7.91
2.272,13.21,5.6,-0.08,-0.25,-2.82,-0.10125,-11.51
2.329,14.03,5.63,-0.28,0.69,-2.59,-0.10125,-10.98
2.383,13.3,5.88,-0.15,0.89,-2.47,-0.10125,-8.96
2.439,12.8,5.93,-0.01,1.23,-2.42,-0.2025,-8.26
2.49,12.67,6.04,-0.1,1.11,-2.61,-0.16875,-7.82
2.548,13.15,6.05,-0.01,1.55,-2.59,0,-7.56
2.601,13.55,6.17,0.2,1.35,-2.62,0.0675,-6.94
2.657,12.82,6.09,0.4,1.88,-2.59,-0.0675,-7.82
2.711,13.12,6.22,0.37,1.7,-2.57,0.03375,-9.14
2.768,12.71,6.43,0.37,2.57,-2.44,-0.0675,-9.14
2.821,12.68,6.39,0.34,2.34,-2.4,-0.03375,-9.4
2.878,13.18,6.44,0.11,2.4,-2.33,-0.03375,-7.73
2.931,12.85,6.59,0.17,1.98,-2.31,-0.0675,-7.29
2.988,13.38,6.72,0.27,1.92,-2.5,0,-6.68
3.039,13.15,7,0.6,1.46,-2.83,-0.23625,-5.97
3.093,12.41,6.95,0.87,1.94,-2.95,-0.03375,-6.68
3.149,12.76,7.06,1.06,1.69,-2.81,0,-6.85
3.201,12.66,6.96,1.19,1.34,-2.74,-0.03375,-7.12
3.258,12.52,7.28,1,0.97,-2.8,-0.0675,-6.5
3.315,11.92,6.97,1.28,1.5,-2.54,-0.0675,-8.96
3.369,12.83,7.11,1.15,0.25,-2.72,-0.10125,-8.43
3.425,12.52,7.12,1.3,0.18,-2.8,-0.03375,-5.89
3.478,12.76,7.5,1.47,-1.25,-3.22,-0.10125,-5.89
3.536,12.44,7.49,1.62,-1.34,-3.4,-0.03375,-6.15
3.589,11.84,7.45,1.85,-1.94,-3.42,-0.10125,-5.8
3.646,11.04,7.63,2,-2.71,-3.51,-0.03375,-4.22
3.699,11.04,7.85,2.46,-2.16,-3.56,-0.03375,-5.36
3.757,12.19,7.76,2.34,-1.6,-3.76,-0.0675,-3.69
3.813,11.95,7.6,2.56,-0.95,-3.64,-0.03375,-4.04
3.869,11.56,7.64,2.5,-0.44,-3.75,-0.0675,-3.69
3.925,12.06,7.99,2.5,0.02,-3.59,-0.10125,-2.55
3.976,11.45,8.02,2.91,1.36,-3.52,-0.0675,-3.78
4.034,11.78,8.11,2.97,2.15,-3.49,-0.0675,-3.51
4.085,11.13,8.3,3,3.11,-3.42,-0.03375,-3.51
4.139,11.88,8.34,3.13,4,-3.32,-0.10125,-3.6
4.199,11.65,8.44,3.23,4.73,-3.29,-0.03375,-3.07
4.265,10.86,8.4,3.34,5.64,-3.22,-0.03375,-1.75
4.325,11.55,8.35,3.35,6.42,-3.11,-0.135,-1.49
4.376,11.45,8.46,3.59,7.12,-3.01,0,-1.67
4.434,11.03,8.68,3.62,7.59,-2.95,-0.0675,-0.52
4.485,11.07,8.88,3.7,8.52,-2.83,-0.10125,-0.79
4.539,11.42,8.88,3.74,9.33,-2.76,-0.10125,-1.23
4.595,11.77,8.83,3.83,10.32,-2.65,-0.16875,-0.61
4.648,11.81,8.9,3.76,10.86,-2.57,-0.135,-0.44
4.704,11.65,9.25,3.87,11.5,-2.38,-0.135,-0.44
4.76,11.81,9.56,3.88,11.88,-2.27,0,0.71
4.816,10.38,9.5,3.91,12.38,-2.18,-0.0675,0.97
4.872,9.94,9.79,4,12.53,-2.03,-0.16875,0.71
4.924,9.36,9.75,3.91,12.69,-1.97,0,1.15
4.982,9.89,9.93,3.94,12.75,-1.84,-0.03375,1.94
5.036,9.6,9.95,3.89,13.04,-1.73,-0.135,2.73
5.093,8.66,9.99,4.05,13.31,-1.61,-0.0675,4.05
5.146,9.32,9.99,3.86,13.01,-1.53,-0.0675,4.84
5.202,8.99,10.23,4,13.06,-1.47,-0.0675,5.45
5.26,8.77,10.52,4.04,12.7,-1.44,-0.0675,5.54
5.321,8.87,10.71,4.1,12.31,-1.34,0,5.89
5.382,8.37,10.59,4.25,11.88,-1.24,-0.10125,6.86
5.442,8.31,10.59,4.32,11.41,-1.11,-0.10125,7.91
5.504,8.41,10.58,4.38,10.91,-1.01,-0.03375,8.79
5.569,8.09,10.66,4.42,10.37,-0.93,-0.03375,9.5
5.63,8.36,10.72,4.43,9.73,-0.85,-0.03375,10.37
5.683,7.76,10.73,4.47,9.19,-0.75,0,10.64
5.736,7.92,10.79,4.49,8.64,-0.65,-0.03375,10.55
5.791,7.89,10.83,4.44,8.01,-0.57,-0.0675,10.46
5.843,7.82,10.98,4.41,7.49,-0.51,-0.03375,10.46
5.902,7.64,11.12,4.4,6.9,-0.42,-0.0675,10.46
5.959,7.45,11.1,4.33,6.43,-0.35,-0.03375,10.55
6.012,7.29,11.09,4.2,5.89,-0.27,-0.03375,10.46
6.069,7.2,11.13,4.14,5.45,-0.18,-0.0675,10.29
6.122,7.26,11.2,4.01,5,-0.13,-0.03375,10.99
6.179,7.14,11.23,3.9,4.57,-0.09,-0.0675,11.08
6.232,6.97,11.24,3.81,4.08,-0.06,-0.03375,11.17
6.288,7.19,11.34,3.7,3.77,-0.01,-0.0675,11.52
6.34,7.06,11.56,3.56,3.28,0.01,-0.10125,11.52
6.394,6.87,11.62,3.46,2.94,0.01,-0.0675,11.96
6.451,6.92,11.67,3.35,2.57,0.03,-0.03375,11.96
6.509,6.75,11.62,3.21,2.28,0.03,-0.03375,11.87
6.56,6.77,11.55,3.04,1.89,0.04,-0.10125,11.96
6.618,6.79,11.51,2.88,1.53,0.04,-0.0675,11.69
6.671,6.74,11.51,2.61,1.05,0.06,-0.10125,11.78
6.729,6.69,11.63,2.39,0.71,0.06,-0.03375,11.87
6.781,6.77,11.52,2.23,0.48,0.05,-0.03375,11.96
6.838,6.92,11.71,2.07,0.3,0.05,-0.03375,12.75
6.893,6.75,11.68,1.87,0.03,0.03,-0.10125,13.36
6.95,6.43,11.68,1.71,-0.12,0.02,-0.03375,13.63
7.006,6.67,11.65,1.58,-0.24,0,-0.10125,13.19
7.059,6.88,11.52,1.39,-0.47,-0.05,-0.10125,12.84
7.117,6.75,11.5,1.29,-0.61,-0.1,-0.10125,12.4
7.169,6.86,11.53,1.13,-0.76,-0.15,-0.135,12.13
7.227,6.91,11.59,1,-0.75,-0.2,-0.03375,12.13
7.278,6.77,11.46,0.86,-0.75,-0.27,-0.10125,12.22
7.331,6.8,11.44,0.74,-0.77,-0.35,-0.10125,12.4
7.386,6.79,11.5,0.65,-0.66,-0.42,-0.0675,12.84
7.44,6.92,11.37,0.52,-0.8,-0.5,-0.03375,12.48
7.498,7.02,11.38,0.39,-0.94,-0.58,-0.03375,12.31
7.557,7,11.39,0.31,-1.01,-0.66,-0.03375,12.22
7.614,7.03,11.37,0.27,-1.05,-0.75,-0.10125,12.13
7.668,6.99,11.46,0.23,-1.01,-0.82,-0.03375,11.87
7.726,7.09,11.3,0.14,-0.95,-0.89,-0.10125,11.43
7.779,7.09,11.19,0.02,-0.96,-0.98,-0.10125,11.34
7.836,7.1,11.09,-0.06,-0.78,-1.07,-0.03375,10.99
7.889,7.2,11.12,-0.15,-0.9,-1.14,-0.10125,10.55
7.943,7.24,11.16,-0.18,-1,-1.22,-0.03375,9.93
7.996,7.16,11.21,-0.23,-1.13,-1.29,-0.03375,9.93
8.054,7.35,11.23,-0.28,-1.21,-1.38,-0.0675,10.37
8.106,7.38,11.16,-0.35,-1.34,-1.45,-0.0675,10.46
8.163,7.25,11.1,-0.4,-1.36,-1.5,-0.0675,10.37
8.216,7.36,11.1,-0.48,-1.45,-1.57,-0.0675,10.02
8.273,7.43,11.02,-0.59,-1.64,-1.63,-0.0675,10.02
8.327,7.37,10.98,-0.69,-1.85,-1.7,-0.03375,10.2
8.381,7.24,10.9,-0.77,-2.05,-1.75,-0.10125,10.46
8.435,7.38,10.75,-0.87,-2.31,-1.8,-0.03375,10.37
8.495,7.5,10.72,-0.97,-2.57,-1.87,0,10.29
8.552,7.51,10.62,-1.05,-2.75,-1.92,-0.10125,10.55
8.606,7.65,10.72,-1.1,-2.96,-1.97,-0.03375,10.46
8.664,7.62,10.63,-1.15,-3.13,-1.98,-0.10125,10.2
8.716,7.53,10.53,-1.21,-3.34,-1.99,-0.0675,10.11
8.773,7.65,10.33,-1.18,-3.28,-2.01,-0.10125,10.46
8.825,7.77,10.23,-1.14,-3.2,-2.04,-0.10125,10.46
8.879,7.81,10.16,-1.04,-2.99,-2.05,-0.0675,10.11
8.934,7.89,10.16,-1.07,-3.08,-2.06,-0.0675,9.93
8.986,8.09,10.18,-1,-2.89,-2.05,-0.10125,9.41
9.043,8.08,10.11,-0.94,-2.6,-2.05,-0.0675,8.79
9.101,8.11,10.08,-0.98,-2.54,-2.06,-0.03375,8.62
9.155,8.08,10.07,-1.07,-2.54,-2.06,-0.03375,8.53
9.21,8.2,10.04,-1.15,-2.52,-2.07,-0.10125,8.44
9.263,8.32,9.96,-1.18,-2.39,-2.07,-0.10125,8.62
9.319,8.38,9.94,-1.18,-2.3,-2.07,-0.10125,8.62
9.373,8.44,9.84,-1.24,-2.14,-2.07,-0.10125,8.62
9.426,8.49,9.84,-1.25,-1.96,-2.07,-0.03375,7.91
9.482,8.49,9.81,-1.27,-1.72,-2.08,-0.10125,7.83
9.535,8.5,9.67,-1.34,-1.54,-2.08,-0.10125,7.83
9.593,8.49,9.7,-1.4,-1.34,-2.08,-0.10125,7.91
9.65,8.68,9.65,-1.48,-1.13,-2.08,-0.10125,7.74
9.701,8.68,9.74,-1.46,-0.94,-2.08,-0.03375,7.65
9.754,8.67,9.69,-1.45,-0.75,-2.09,-0.0675,7.56
9.811,8.77,9.6,-1.47,-0.62,-2.09,-0.0675,7.39
9.871,8.77,9.63,-1.53,-0.43,-2.09,-0.0675,6.77
9.929,8.82,9.6,-1.59,-0.21,-2.09,-0.03375,6.6
9.988,8.89,9.56,-1.59,-0.09,-2.09,-0.03375,6.51
10.05,8.86,9.49,-1.52,0.03,-2.1,-0.03375,6.16
10.109,8.85,9.47,-1.49,0.22,-2.1,-0.10125,5.98
10.169,8.89,9.57,-1.43,0.35,-2.09,-0.10125,5.72
10.229,8.88,9.65,-1.4,0.48,-2.09,-0.0675,6.6
10.286,8.95,9.64,-1.4,0.56,-2.09,-0.03375,6.68
10.348,8.88,9.57,-1.39,0.63,-2.09,-0.03375,6.68
10.409,8.9,9.56,-1.33,0.65,-2.1,-0.03375,6.42
10.469,8.97,9.54,-1.31,0.77,-2.1,-0.10125,5.54
10.529,9.04,9.37,-1.28,0.5,-2.11,-0.10125,5.01
10.591,9.06,9.32,-1.27,0.66,-2.11,-0.03375,5.28
10.657,8.89,9.31,-1.2,0.73,-2.11,-0.10125,5.1
10.718,8.95,9.25,-1.14,0.75,-2.11,-0.0675,4.75
10.775,9.01,9.15,-1.1,0.63,-2.1,-0.03375,4.75
10.833,9.04,9.49,-1.1,0.74,-2.08,-0.10125,4.05
10.896,9.08,9.36,-1.09,0.88,-2.02,-0.03375,3.69
10.957,9,9.45,-1.1,1.05,-1.97,-0.03375,2.9
11.017,9.03,9.55,-1.06,0.91,-1.95,-0.03375,2.82
11.075,9.06,9.54,-1.06,0.76,-1.92,-0.0675,2.73
11.135,8.96,9.6,-1.11,0.95,-1.86,0,2.73
11.197,8.99,9.55,-1.17,1.03,-1.8,-0.03375,2.64
11.257,9.01,9.58,-1.23,1.08,-1.74,-0.03375,2.73
11.317,8.94,9.49,-1.26,1.16,-1.68,-0.10125,2.73
11.375,9,9.5,-1.28,1.15,-1.62,-0.0675,2.73
11.433,8.94,9.44,-1.27,1.12,-1.56,-0.03375,2.64
11.496,8.94,9.64,-1.25,1.02,-1.51,-0.0675,2.55
11.556,8.9,9.73,-1.26,0.89,-1.46,-0.10125,2.2
11.616,8.89,9.85,-1.26,0.93,-1.4,-0.03375,2.02
11.674,8.86,9.96,-1.26,0.96,-1.32,-0.03375,2.02
11.735,8.82,9.98,-1.26,1.01,-1.25,-0.03375,1.85
11.795,8.8,9.83,-1.25,1.05,-1.19,-0.0675,1.5
11.855,8.86,9.83,-1.2,1.02,-1.13,-0.03375,1.23
11.915,8.82,9.93,-1.13,0.81,-1.06,-0.0675,0.79
11.972,8.82,9.82,-1.09,0.76,-0.99,-0.03375,0.62
12.034,8.8,9.89,-1.04,0.77,-0.92,-0.03375,0.62
12.094,8.76,9.88,-1.01,0.77,-0.85,-0.0675,0.62
12.155,8.77,9.85,-0.98,0.65,-0.79,-0.10125,0.71
12.215,8.68,9.94,-0.96,0.48,-0.71,-0.03375,0.79
12.283,8.7,9.87,-0.92,0.47,-0.63,-0.03375,0.88
12.344,8.74,9.8,-0.87,0.46,-0.55,-0.03375,0.53
12.404,8.75,9.63,-0.84,0.4,-0.47,-0.10125,-0.26
12.464,8.71,9.78,-0.83,0.27,-0.4,-0.03375,-0.44
12.522,8.71,9.75,-0.81,0.19,-0.33,-0.03375,-0.52
12.582,8.65,9.81,-0.77,0.19,-0.24,-0.10125,-0.7
12.644,8.68,9.85,-0.71,0.21,-0.15,-0.10125,-0.7
12.703,8.6,9.93,-0.64,0.23,-0.05,-0.10125,-0.52
12.763,8.54,10.08,-0.56,0.24,0.03,-0.10125,-0.08
12.821,8.59,10.13,-0.52,0.18,0.1,-0.03375,0.09
12.88,8.49,10.03,-0.53,0.05,0.2,-0.03375,-0.08
12.942,8.48,9.98,-0.49,0.04,0.31,-0.0675,0.18
13.002,8.55,9.93,-0.45,0.03,0.41,-0.0675,0.09
13.062,8.59,9.94,-0.43,-0.04,0.51,-0.03375,0.35
13.119,8.57,10.04,-0.44,-0.1,0.59,-0.0675,0.44
13.178,8.56,10.08,-0.43,-0.1,0.69,-0.0675,0
13.241,8.48,10.05,-0.41,-0.09,0.82,-0.0675,0
13.301,8.56,10.02,-0.4,-0.12,0.93,-0.0675,0.09
13.361,8.53,10.05,-0.38,-0.18,1.01,-0.03375,0.18
13.418,8.48,9.97,-0.34,-0.16,1.11,-0.03375,-0.26
13.477,8.49,10.01,-0.32,-0.09,1.21,-0.10125,-0.44
13.538,8.54,9.98,-0.29,-0.03,1.31,-0.10125,-0.79
13.601,8.49,9.98,-0.22,-0.03,1.44,-0.03375,-0.88
13.661,8.46,9.96,-0.2,-0.1,1.54,-0.03375,-1.14
13.721,8.39,9.96,-0.14,-0.1,1.64,-0.03375,-1.32
13.782,8.41,9.93,-0.1,-0.08,1.75,-0.03375,-1.4
13.843,8.45,10.04,-0.11,-0.03,1.85,-0.03375,-1.49
13.902,8.37,10.05,-0.1,-0.07,1.96,0,-1.49
13.962,8.35,10.06,-0.08,-0.14,2.06,-0.03375,-1.23
14.022,8.43,10.15,-0.07,-0.26,2.17,-0.03375,-1.14
14.081,8.43,10.34,-0.11,-0.42,2.28,-0.0675,-0.7
14.144,8.26,10.31,-0.12,-0.47,2.4,-0.03375,0.88
14.208,8.31,10.15,-0.11,-0.52,2.5,-0.03375,1.59
14.266,8.34,10.03,-0.11,-0.56,2.62,-0.03375,1.76
14.326,8.46,10.04,-0.13,-0.62,2.76,-0.0675,2.11
14.388,8.33,10,-0.18,-0.67,2.89,-0.03375,2.29
14.448,8.33,10,-0.22,-0.76,3.01,0,2.38
14.508,8.47,10.01,-0.27,-0.83,3.12,-0.03375,2.46
14.566,8.41,10,-0.29,-0.87,3.25,-0.10125,2.55
14.625,8.33,10.11,-0.29,-0.91,3.35,-0.10125,2.73
14.687,8.29,10.18,-0.29,-0.8,3.49,-0.03375,2.82
14.747,8.4,10.21,-0.29,-0.85,3.6,-0.03375,2.99
14.807,8.42,10.13,-0.29,-0.87,3.72,-0.03375,3.78
14.865,8.36,10.13,-0.29,-0.86,3.82,-0.10125,3.78
14.924,8.36,10.05,-0.32,-0.84,3.95,-0.03375,3.87
14.987,8.4,10.12,-0.32,-0.84,4.06,-0.03375,3.96
15.047,8.39,10.01,-0.33,-0.8,4.14,-0.03375,3.96
15.108,8.4,9.88,-0.34,-0.78,4.23,-0.03375,4.22
15.167,8.48,9.9,-0.34,-0.8,4.31,-0.03375,4.75
15.227,8.53,9.87,-0.34,-0.84,4.38,-0.10125,5.01
15.287,8.42,9.83,-0.34,-0.83,4.46,-0.03375,4.93
15.347,8.43,9.89,-0.34,-0.83,4.53,-0.03375,4.84
15.407,8.42,9.91,-0.34,-0.83,4.6,-0.03375,4.22
15.467,8.43,9.93,-0.32,-0.83,4.66,-0.10125,4.31
15.528,8.45,9.86,-0.31,-0.82,4.72,-0.0675,4.22
15.591,8.53,9.76,-0.28,-0.81,4.76,-0.0675,4.22
15.654,8.48,9.73,-0.25,-0.81,4.82,-0.10125,5.01
15.712,8.47,9.79,-0.2,-0.8,4.87,-0.03375,5.1
15.775,8.4,9.84,-0.16,-0.8,4.91,-0.10125,5.19
15.835,8.52,9.91,-0.12,-0.79,4.96,-0.03375,5.01
15.894,8.46,9.96,-0.08,-0.79,5,-0.03375,5.01
15.955,8.47,9.89,-0.03,-0.79,5.04,-0.03375,4.93
16.013,8.43,9.91,-0.03,-0.78,5.05,-0.0675,4.93
16.073,8.44,9.8,-0.03,-0.78,5.05,-0.135,5.01
16.134,8.47,9.79,-0.03,-0.78,5.05,-0.10125,5.01
16.194,8.38,9.83,-0.03,-0.78,5.05,-0.03375,5.01
16.254,8.4,9.82,-0.03,-0.78,5.05,-0.03375,4.93
16.313,8.37,9.79,-0.01,-0.77,5.05,-0.0675,5.01
16.374,8.43,9.84,0.01,-0.77,5.05,-0.0675,4.93
16.433,8.35,9.81,0.02,-0.77,5.05,-0.16875,4.84
16.494,8.37,9.81,0.02,-0.77,5.05,-0.03375,4.84
16.554,8.41,9.78,0.02,-0.77,5.05,-0.03375,4.84
16.616,8.43,9.75,0.02,-0.77,5.05,-0.0675,4.84
16.682,8.43,9.76,0.02,-0.77,5.05,-0.03375,4.93
16.742,8.41,9.7,0.02,-0.76,5.05,-0.0675,5.01
16.803,8.38,9.68,0.02,-0.72,5.05,-0.03375,5.01
16.863,8.41,9.7,0.02,-0.66,5.05,-0.0675,5.01
16.923,8.4,9.68,0.02,-0.61,5.05,-0.03375,5.1
16.982,8.33,9.71,0.02,-0.57,5.05,-0.10125,5.01
17.042,8.35,9.7,0.02,-0.56,5.05,-0.03375,5.54
17.102,8.37,9.72,0.02,-0.55,5.05,-0.0675,5.63
17.162,8.32,9.66,0.02,-0.55,5.05,-0.0675,5.72
17.221,8.31,9.75,0.03,-0.54,5.05,-0.03375,6.6
17.281,8.25,9.68,0.03,-0.51,5.05,-0.03375,6.33
17.341,8.27,9.68,0.02,-0.5,5.05,-0.10125,6.24
17.4,8.27,9.66,0.01,-0.48,5.05,-0.10125,6.16
17.458,8.2,9.68,0.01,-0.45,5.05,-0.0675,5.98
17.52,8.14,9.69,-0.03,-0.43,5.05,-0.0675,5.8
17.58,8.17,9.7,-0.07,-0.39,5.05,-0.03375,5.72
17.64,8.21,9.64,-0.13,-0.37,5.05,-0.03375,5.72
17.7,8.16,9.6,-0.19,-0.37,5.05,-0.03375,5.98
17.76,8.13,9.53,-0.24,-0.37,5.04,-0.0675,5.98
17.82,8.1,9.59,-0.29,-0.37,5.04,-0.10125,6.16
17.88,8.08,9.55,-0.34,-0.37,5.04,-0.03375,6.33
17.94,8.11,9.52,-0.4,-0.37,5.04,-0.03375,6.68
18,8.06,9.55,-0.45,-0.37,5.04,-0.03375,6.51
18.06,7.97,9.58,-0.51,-0.37,5.04,-0.135,6.33
18.111,7.97,9.82,-0.55,-0.37,5.04,-0.10125,6.33
18.169,7.92,9.88,-0.58,-0.37,5.04,-0.03375,6.95
18.221,7.87,9.86,-0.62,-0.37,5.04,-0.03375,7.12
18.277,7.87,9.91,-0.64,-0.37,5.04,-0.03375,7.39
18.331,7.87,9.83,-0.66,-0.38,5.04,-0.10125,7.74
18.388,7.86,9.74,-0.66,-0.38,5.04,-0.03375,7.65
18.44,7.77,9.81,-0.66,-0.4,5.04,-0.03375,7.39
18.498,7.77,9.84,-0.66,-0.42,5.04,-0.03375,6.77
18.551,7.77,9.89,-0.66,-0.45,5.04,-0.03375,6.6
18.603,7.73,9.99,-0.66,-0.47,5.04,-0.03375,6.51
18.659,7.7,9.97,-0.66,-0.52,5.04,-0.03375,6.42
18.717,7.7,10.05,-0.66,-0.56,5.04,-0.03375,6.6
18.769,7.64,10.09,-0.66,-0.59,5.04,-0.03375,6.95
18.827,7.64,10.05,-0.66,-0.61,5.04,-0.0675,6.86
18.88,7.59,10.1,-0.66,-0.61,5.04,-0.03375,7.12
18.937,7.59,10.03,-0.66,-0.61,5.04,-0.0675,7.3
18.989,7.56,9.94,-0.63,-0.66,5.04,-0.0675,8.18
19.046,7.51,9.93,-0.6,-0.69,5.04,-0.0675,8.35
19.099,7.51,9.92,-0.55,-0.75,5.04,-0.0675,8.26
19.152,6.95,10.01,-0.53,-0.78,5.04,-0.03375,8.26
19.207,6.95,10,-0.52,-0.8,5.04,-0.10125,7.65
19.264,7.43,10.09,-0.5,-0.78,5.04,-0.0675,7.56
19.318,7.43,10.1,-0.5,-0.78,5.04,-0.03375,7.47
19.371,7.5,10.09,-0.49,-0.78,5.04,-0.03375,7.65
19.427,7.5,10.09,-0.46,-0.83,5.04,-0.0675,7.74
19.485,7.4,10.08,-0.45,-0.85,5.04,-0.03375,7.83
19.539,7.4,10.08,-0.43,-0.83,5.04,-0.03375,7.91
19.596,7.41,10.11,-0.41,-0.81,5.04,-0.03375,7.83
19.647,7.41,10.06,-0.4,-0.82,5.04,-0.03375,7.74
19.701,7.38,10.03,-0.39,-0.84,5.04,-0.10125,7.47
19.758,7.33,10.02,-0.37,-0.86,5.04,-0.03375,7.47
19.815,7.33,10.03,-0.36,-0.87,5.04,0,7.47
19.866,7.33,10.05,-0.36,-0.89,5.04,-0.0675,7.74
19.924,7.3,10.04,-0.35,-0.89,5.04,-0.10125,7.74
19.975,7.25,10.04,-0.35,-0.89,5.04,-0.03375,7.74
20.029,7.25,10,-0.35,-0.89,5.04,-0.03375,7.65
20.084,7.24,9.96,-0.34,-0.9,5.04,-0.03375,7.39
20.137,7.24,9.97,-0.33,-0.87,5.04,-0.03375,7.3
20.194,7.23,9.9,-0.32,-0.85,5.04,-0.03375,7.3
20.246,7.19,9.92,-0.3,-0.84,5.04,-0.0675,7.3
20.299,7.19,9.89,-0.3,-0.84,5.04,-0.03375,7.39
20.356,7.19,9.94,-0.29,-0.83,5.04,-0.03375,7.39
20.409,7.15,9.94,-0.27,-0.84,5.04,-0.03375,8
20.465,7.09,9.95,-0.27,-0.84,5.04,-0.03375,8.26
20.522,7.09,9.97,-0.27,-0.84,5.04,-0.03375,8.35
20.575,7.06,9.97,-0.28,-0.84,5.04,-0.0675,8.26
20.632,7.06,10.01,-0.28,-0.86,5.04,-0.0675,8.26
20.683,7.02,9.92,-0.29,-0.9,5.06,-0.03375,8.26
20.741,7.01,9.94,-0.29,-0.95,5.09,-0.10125,8.44
20.793,7.01,9.92,-0.3,-1.02,5.11,-0.10125,8.88
20.847,6.97,9.88,-0.31,-1.05,5.12,-0.0675,8.97
20.903,6.97,9.78,-0.32,-1.09,5.15,-0.0675,9.06
20.962,6.92,9.83,-0.34,-1.12,5.19,-0.03375,9.06
21.014,6.92,9.78,-0.37,-1.12,5.22,-0.03375,9.06
21.07,6.92,9.79,-0.41,-1.12,5.26,-0.03375,8.97
21.123,6.92,9.79,-0.47,-1.12,5.31,0,8.88
21.181,6.87,9.8,-0.51,-1.12,5.35,-0.0675,9.06
21.234,6.85,9.82,-0.56,-1.12,5.38,-0.0675,9.23
21.291,6.85,9.79,-0.62,-1.12,5.44,-0.10125,9.32
21.344,6.83,9.81,-0.66,-1.12,5.47,-0.03375,9.58
21.401,6.83,9.82,-0.68,-1.12,5.51,-0.03375,10.02
21.453,6.79,9.82,-0.69,-1.12,5.54,-0.03375,9.93
21.509,6.77,9.8,-0.7,-1.1,5.56,-0.0675,10.02
21.562,6.77,9.76,-0.72,-1.09,5.58,-0.10125,10.02
21.617,6.73,9.76,-0.76,-1.1,5.6,-0.03375,9.93
21.671,6.73,9.74,-0.8,-1.07,5.61,-0.0675,10.02
21.728,6.69,9.71,-0.84,-1.04,5.62,-0.0675,9.93
21.781,6.69,9.74,-0.86,-1.02,5.62,-0.0675,9.85
21.836,6.66,9.74,-0.88,-1.01,5.62,-0.0675,10.02
21.89,6.64,9.77,-0.92,-1.01,5.62,-0.03375,10.11
21.945,6.64,9.78,-0.92,-1.01,5.62,-0.03375,10.29
22.002,6.61,9.81,-0.92,-1,5.61,-0.03375,10.29
22.06,6.61,9.81,-0.94,-1,5.61,-0.10125,10.2
22.11,6.57,9.8,-0.93,-1.02,5.61,-0.135,10.2
22.166,6.56,9.79,-0.91,-1.03,5.61,-0.0675,10.2
22.221,6.56,9.84,-0.9,-1.03,5.61,-0.03375,10.11
22.279,6.56,9.84,-0.89,-1.02,5.61,-0.0675,9.85
22.331,6.56,9.92,-0.88,-1.01,5.61,-0.0675,9.76
22.388,6.51,9.91,-0.9,-1,5.61,-0.135,9.67
22.44,6.48,9.91,-0.9,-0.99,5.61,-0.03375,9.58
22.494,6.48,9.89,-0.91,-0.98,5.6,-0.10125,9.06
22.548,6.45,9.92,-0.94,-0.99,5.6,-0.03375,8.97
22.605,6.45,9.98,-0.96,-0.99,5.6,-0.03375,8.97
22.659,6.43,10,-0.96,-0.99,5.6,-0.10125,8.88
22.714,6.42,9.96,-0.97,-0.98,5.6,-0.03375,8.88
22.77,6.42,9.97,-0.96,-0.98,5.6,-0.03375,8.7
22.827,6.4,9.95,-0.94,-0.98,5.6,-0.10125,8.62
22.879,6.4,9.8,-0.92,-0.97,5.6,-0.0675,8.09
22.936,6.36,9.82,-0.9,-0.96,5.59,-0.0675,8
22.989,6.35,9.9,-0.87,-0.95,5.59,-0.03375,7.91
23.042,6.35,10.01,-0.84,-0.94,5.59,-0.03375,8.26
23.099,6.34,10.11,-0.79,-0.91,5.59,-0.03375,8.35
23.156,6.29,10.11,-0.74,-0.86,5.59,-0.10125,7.65
23.208,6.29,10.24,-0.72,-0.83,5.59,-0.03375,7.3
23.265,6.27,10.17,-0.68,-0.82,5.59,-0.03375,7.74
23.318,6.27,10.09,-0.63,-0.82,5.59,-0.03375,7.83
23.376,6.21,10.1,-0.56,-0.8,5.59,-0.0675,7.91
23.427,6.18,10.06,-0.51,-0.79,5.59,-0.03375,7.83
23.485,6.18,10.09,-0.47,-0.79,5.59,-0.03375,7.39
23.539,6.17,10.15,-0.41,-0.79,5.6,-0.03375,6.86
23.595,6.17,10.12,-0.37,-0.79,5.6,-0.03375,6.95
23.646,6.13,10.07,-0.31,-0.8,5.6,-0.10125,5.8
23.701,6.09,10.1,-0.27,-0.84,5.6,-0.0675,5.19
23.756,6.06,10.07,-0.22,-0.91,5.6,-0.10125,5.19
23.814,6.06,10.1,-0.18,-0.96,5.6,-0.03375,5.19
23.866,6.06,10.15,-0.13,-1.02,5.6,-0.0675,4.93
23.92,6.06,10.08,-0.09,-1.06,5.6,-0.03375,4.57
23.975,6.02,10.1,-0.03,-1.11,5.6,-0.0675,4.4
24.026,6.02,10.07,0.02,-1.15,5.6,-0.03375,4.49
24.083,6.04,10,0.07,-1.19,5.6,-0.0675,5.01
24.135,5.97,9.94,0.08,-1.27,5.6,-0.10125,5.01
24.191,5.93,10.02,0.1,-1.34,5.61,-0.03375,5.28
24.246,5.93,9.97,0.11,-1.43,5.61,-0.03375,5.28
24.299,5.92,9.95,0.1,-1.49,5.61,-0.10125,5.19
24.355,5.92,10.13,0.05,-1.5,5.61,-0.03375,5.1
24.412,5.95,10.08,0.04,-1.55,5.61,-0.10125,5.01
24.465,5.95,10.02,0.05,-1.65,5.61,-0.03375,5.01
24.523,5.95,10.09,0.03,-1.71,5.61,-0.03375,5.1
24.575,5.9,10.05,0.01,-1.75,5.62,-0.03375,4.49
24.632,5.88,10.04,-0.01,-1.79,5.63,-0.0675,4.31
24.685,5.88,9.94,-0.03,-1.78,5.63,-0.03375,4.31
24.743,5.92,9.8,-0.04,-1.75,5.64,-0.10125,4.31
24.796,5.92,9.81,-0.06,-1.7,5.65,-0.0675,4.22
24.852,5.95,9.83,-0.05,-1.67,5.65,-0.03375,3.96
24.904,5.94,9.89,-0.05,-1.66,5.65,-0.03375,3.78
24.962,5.95,9.85,-0.03,-1.66,5.65,-0.03375,3.61
25.013,5.95,9.73,-0.05,-1.64,5.65,-0.03375,3.61
25.071,5.98,9.92,-0.07,-1.62,5.65,-0.0675,3.34
25.122,5.98,10,-0.07,-1.59,5.65,-0.0675,3.34
25.18,6,9.89,-0.07,-1.58,5.65,-0.03375,2.82
25.234,6,9.89,-0.08,-1.57,5.68,-0.03375,2.64
25.29,6,9.86,-0.11,-1.57,5.7,-0.03375,2.55
25.342,6.01,9.86,-0.13,-1.56,5.73,-0.03375,2.64
25.4,6.03,9.85,-0.17,-1.52,5.77,-0.03375,2.73
25.453,6.03,9.8,-0.24,-1.5,5.81,-0.03375,2.73
25.509,6.05,9.88,-0.32,-1.38,5.83,-0.0675,2.64
25.561,6.05,9.92,-0.39,-1.39,5.87,-0.03375,1.67
25.616,6.02,9.88,-0.46,-1.37,5.91,-0.0675,0.97
25.67,6.03,9.84,-0.53,-1.34,5.96,-0.03375,0.97
25.722,6.03,9.8,-0.63,-1.29,6,-0.03375,1.06
25.779,6.06,9.77,-0.72,-1.26,6.04,-0.03375,1.06
25.832,6.04,9.66,-0.8,-1.27,6.09,-0.0675,1.06
25.887,6.04,9.7,-0.88,-1.26,6.13,-0.03375,1.23
25.941,6.04,9.67,-0.96,-1.22,6.18,-0.03375,1.32
25.997,6.04,9.73,-1.01,-1.19,6.21,-0.03375,0.71
26.05,6.03,9.77,-1.05,-1.13,6.27,-0.0675,0.62
26.105,6.04,9.78,-1.07,-1.09,6.31,-0.0675,0.44
26.161,6.04,9.76,-1.08,-1.03,6.35,-0.03375,0.97
26.218,5.99,9.74,-1.08,-0.98,6.39,-0.10125,0.97
26.271,5.96,9.69,-1.08,-0.91,6.43,-0.03375,0.88
26.327,5.96,9.76,-1.09,-0.86,6.47,-0.0675,1.15
26.379,5.97,9.89,-1.07,-0.79,6.52,-0.10125,0.71
26.433,5.99,9.9,-1.06,-0.74,6.57,-0.03375,0.71
26.488,5.99,9.95,-1.04,-0.68,6.61,-0.0675,1.23
26.541,5.96,9.89,-1,-0.62,6.66,-0.03375,1.23
26.598,5.96,9.82,-0.95,-0.55,6.71,-0.03375,1.41
26.655,5.93,9.77,-0.9,-0.47,6.75,-0.10125,1.76
26.711,5.93,9.8,-0.83,-0.36,6.8,-0.0675,1.76
26.767,5.93,9.7,-0.78,-0.26,6.85,-0.0675,2.11
26.818,5.91,9.86,-0.7,-0.17,6.89,-0.03375,1.85
26.876,5.89,9.81,-0.63,-0.1,6.94,-0.03375,2.02
26.927,5.89,9.64,-0.54,-0.02,6.99,-0.10125,2.29
26.98,5.87,9.58,-0.47,0.04,7.03,-0.03375,2.38
27.036,5.86,9.56,-0.4,0.07,7.08,-0.0675,2.55
27.089,5.86,9.58,-0.32,0.12,7.13,-0.10125,2.64
27.144,5.82,9.69,-0.24,0.13,7.19,-0.10125,2.9
27.197,5.82,9.74,-0.17,0.14,7.23,-0.10125,2.64
27.25,5.8,9.82,-0.11,0.15,7.28,-0.03375,2.64
27.307,5.79,9.68,-0.05,0.15,7.34,-0.10125,2.82
27.365,5.76,9.77,0,0.16,7.4,-0.10125,2.82
27.418,5.76,9.83,0.05,0.17,7.44,-0.03375,2.73
27.474,5.72,9.85,0.09,0.15,7.49,-0.03375,2.64
27.525,5.72,9.96,0.15,0.14,7.56,-0.03375,2.46
27.579,5.73,9.95,0.18,0.13,7.62,-0.03375,2.11
27.633,5.66,9.96,0.23,0.12,7.66,-0.0675,2.11
27.685,5.66,9.97,0.31,0.13,7.73,-0.10125,2.02
27.738,5.63,9.97,0.36,0.09,7.78,-0.0675,1.94
27.796,5.63,10.02,0.4,0.03,7.83,-0.03375,2.02
27.853,5.57,9.99,0.46,-0.01,7.87,-0.0675,1.94
27.905,5.57,10.06,0.51,-0.04,7.94,-0.10125,1.59
27.961,5.52,10.03,0.55,-0.04,7.99,-0.10125,0.44
28.014,5.52,10.01,0.61,-0.04,8.06,-0.03375,0.88
28.074,5.5,9.98,0.65,-0.06,8.12,-0.0675,0.71
28.124,5.48,9.95,0.65,-0.09,8.2,-0.0675,0.97
28.178,5.48,9.92,0.6,-0.07,8.25,-0.0675,1.06
28.234,5.39,9.89,0.6,-0.1,8.33,-0.03375,0.97
28.291,5.36,9.88,0.6,-0.18,8.39,-0.0675,1.06
28.345,5.38,9.89,0.57,-0.31,8.47,-0.03375,1.15
28.401,5.38,9.92,0.55,-0.38,8.54,-0.10125,1.15
28.454,5.31,9.93,0.52,-0.48,8.61,-0.10125,2.02
28.511,5.27,10.03,0.53,-0.55,8.67,-0.03375,2.46
28.563,5.27,9.96,0.52,-0.64,8.74,-0.03375,2.55
28.62,5.24,9.85,0.5,-0.71,8.8,-0.03375,2.9
28.672,5.22,9.87,0.5,-0.8,8.87,-0.10125,2.99
28.724,5.22,9.78,0.51,-0.87,8.94,-0.10125,2.82
28.779,5.15,9.86,0.51,-0.96,9.02,-0.03375,2.9
28.834,5.11,9.86,0.5,-1.05,9.07,-0.0675,3.08
28.891,5.11,9.86,0.52,-1.09,9.14,-0.03375,3.26
28.943,5.1,9.85,0.55,-1.12,9.19,-0.0675,3.26
29,5.07,9.96,0.56,-1.15,9.22,-0.03375,2.9
29.054,5.04,9.84,0.62,-1.19,9.27,-0.03375,3.08
29.111,5.01,9.86,0.63,-1.23,9.32,-0.03375,3.17
29.163,5.01,9.77,0.62,-1.2,9.35,-0.03375,3.26
29.217,4.98,9.87,0.6,-1.2,9.4,-0.03375,3.26
29.272,4.99,9.9,0.6,-1.21,9.43,-0.10125,3.17
29.326,4.94,10.02,0.61,-1.19,9.45,-0.0675,3.08
29.381,4.94,9.93,0.6,-1.17,9.49,-0.0675,3.34
29.433,4.9,9.99,0.57,-1.2,9.54,-0.03375,3.34
29.49,4.89,10,0.53,-1.24,9.56,-0.10125,3.34
29.543,4.89,9.9,0.5,-1.28,9.6,-0.0675,3.26
29.599,4.86,9.88,0.48,-1.31,9.63,-0.03375,4.4
29.651,4.82,9.88,0.46,-1.34,9.67,-0.03375,4.49
29.708,4.81,9.78,0.43,-1.34,9.69,-0.03375,4.75
29.762,4.81,9.81,0.39,-1.34,9.73,-0.03375,4.84
29.818,4.81,9.72,0.35,-1.32,9.75,-0.0675,5.1
29.871,4.81,9.74,0.3,-1.3,9.78,-0.03375,5.01
29.923,4.81,9.73,0.23,-1.26,9.79,-0.03375,5.1
29.98,4.76,9.71,0.2,-1.22,9.81,-0.0675,5.1
30.033,4.73,9.7,0.16,-1.21,9.82,-0.0675,5.1
30.089,4.74,9.69,0.11,-1.2,9.83,-0.10125,5.1
30.142,4.74,9.71,0.07,-1.2,9.83,-0.0675,5.1
30.198,4.71,9.66,0.04,-1.19,9.83,-0.03375,5.19
30.252,4.66,9.67,0,-1.18,9.83,-0.03375,5.28
30.308,4.64,9.67,-0.02,-1.17,9.83,-0.03375,5.36
30.36,4.65,9.68,-0.04,-1.17,9.83,-0.0675,5.36
30.417,4.65,9.75,-0.04,-1.16,9.83,-0.0675,5.28
30.469,4.62,9.81,-0.05,-1.17,9.82,-0.03375,5.28
30.528,4.6,9.77,-0.07,-1.17,9.82,-0.03375,5.19
30.579,4.6,9.78,-0.07,-1.17,9.82,-0.0675,5.19
30.637,4.6,9.74,-0.07,-1.17,9.82,-0.0675,5.1
30.69,4.57,9.65,-0.07,-1.17,9.82,-0.03375,5.19
30.746,4.53,9.62,-0.05,-1.17,9.82,-0.03375,5.1
30.799,4.51,9.63,-0.05,-1.17,9.82,-0.03375,5.19
30.856,4.51,9.74,-0.04,-1.15,9.82,-0.03375,5.36
30.907,4.5,9.74,-0.01,-1.15,9.82,-0.0675,5.45
30.965,4.46,9.73,0.01,-1.15,9.82,-0.03375,5.45
31.018,4.44,9.77,0.04,-1.15,9.82,-0.03375,5.36
31.072,4.44,9.85,0.05,-1.16,9.82,-0.10125,5.36
31.126,4.44,9.74,0.05,-1.16,9.82,-0.03375,5.45
31.185,4.4,9.78,0.05,-1.16,9.82,-0.03375,5.36
31.237,4.37,9.77,0.05,-1.16,9.82,-0.0675,5.36
31.294,4.36,9.76,0.05,-1.16,9.82,-0.10125,5.45
31.347,4.37,9.85,0.04,-1.15,9.82,-0.0675,5.54
31.404,4.37,9.71,0.04,-1.14,9.82,-0.0675,5.45
31.457,4.36,9.74,0.04,-1.13,9.82,-0.10125,5.45
31.514,4.31,9.75,0.05,-1.09,9.82,-0.0675,5.45
31.567,4.29,9.79,0.04,-1.04,9.82,-0.10125,5.54
31.624,4.29,9.79,0.05,-1,9.82,-0.03375,5.63
31.677,4.29,9.72,0.04,-0.96,9.82,-0.0675,5.54
31.734,4.28,9.76,0.05,-0.94,9.82,-0.03375,5.63
31.787,4.24,9.78,0.04,-0.9,9.82,-0.03375,5.63
31.844,4.22,9.73,0.04,-0.89,9.82,-0.10125,5.63
31.896,4.21,9.76,0.04,-0.88,9.82,-0.10125,5.63
31.953,4.2,9.72,0.05,-0.84,9.82,-0.03375,5.72
32.007,4.18,9.66,0.04,-0.8,9.82,-0.03375,5.63
32.064,4.18,9.64,0.01,-0.75,9.82,-0.0675,5.63
32.115,4.16,9.61,-0.01,-0.71,9.82,-0.10125,5.72
32.172,4.14,9.57,-0.04,-0.67,9.82,-0.03375,5.8
32.226,4.13,9.5,-0.07,-0.62,9.82,-0.03375,5.8
32.282,4.11,9.49,-0.09,-0.57,9.82,-0.03375,5.8
32.334,4.11,9.37,-0.09,-0.5,9.82,-0.03375,5.8
32.391,4.06,9.41,-0.09,-0.45,9.82,-0.03375,5.89
32.445,4.02,9.46,-0.09,-0.39,9.82,-0.10125,5.98
32.503,3.99,9.53,-0.1,-0.37,9.82,-0.10125,5.98
32.555,3.99,9.56,-0.1,-0.36,9.82,-0.0675,5.98
32.612,3.95,9.62,-0.11,-0.35,9.82,-0.10125,5.63
32.663,3.95,9.63,-0.11,-0.36,9.82,-0.03375,5.63
32.717,3.9,9.62,-0.11,-0.36,9.82,-0.0675,5.45
32.772,3.87,9.68,-0.12,-0.35,9.82,-0.03375,5.36
32.827,3.84,9.59,-0.13,-0.33,9.82,-0.03375,5.19
32.882,3.82,9.52,-0.14,-0.28,9.82,-0.10125,5.01
32.94,3.76,9.55,-0.15,-0.25,9.82,-0.0675,5.01
32.994,3.71,9.55,-0.17,-0.22,9.82,-0.03375,5.19
33.05,3.67,9.56,-0.18,-0.21,9.82,-0.0675,5.28
33.102,3.67,9.49,-0.19,-0.19,9.82,-0.03375,5.19
33.156,3.65,9.5,-0.19,-0.17,9.82,-0.03375,5.19
33.211,3.62,9.51,-0.2,-0.17,9.82,-0.03375,5.01
33.264,3.59,9.54,-0.24,-0.17,9.82,-0.03375,5.01
33.32,3.54,9.55,-0.26,-0.2,9.82,-0.03375,4.84
33.373,3.51,9.63,-0.27,-0.22,9.82,-0.0675,4.84
33.429,3.48,9.7,-0.3,-0.26,9.82,-0.0675,4.57
33.481,3.47,9.71,-0.32,-0.32,9.82,0,4.57
33.538,3.45,9.63,-0.33,-0.38,9.82,-0.10125,4.49
33.591,3.42,9.6,-0.35,-0.41,9.82,-0.03375,4.31
33.649,3.38,9.61,-0.36,-0.45,9.82,-0.03375,4.13
33.702,3.36,9.69,-0.36,-0.47,9.82,-0.0675,4.13
33.759,3.34,9.68,-0.37,-0.47,9.82,-0.0675,4.13
33.81,3.34,9.76,-0.38,-0.49,9.82,-0.0675,4.05
33.864,3.3,9.73,-0.38,-0.5,9.82,-0.03375,4.05
33.921,3.29,9.73,-0.39,-0.51,9.82,-0.0675,3.96
33.978,3.26,9.72,-0.39,-0.52,9.82,-0.03375,3.87
34.03,3.26,9.69,-0.41,-0.55,9.82,-0.10125,3.61
34.088,3.22,9.76,-0.41,-0.57,9.82,-0.03375,2.02
34.141,3.2,9.82,-0.43,-0.58,9.82,-0.0675,1.94
34.198,3.19,9.82,-0.44,-0.58,9.82,-0.0675,1.85
34.25,3.18,9.85,-0.44,-0.61,9.82,-0.03375,1.94
34.308,3.16,9.81,-0.45,-0.65,9.82,-0.10125,1.94
34.36,3.12,9.78,-0.45,-0.69,9.82,-0.0675,2.02
34.417,3.1,9.72,-0.46,-0.75,9.82,-0.03375,2.02
34.468,3.1,9.65,-0.48,-0.81,9.81,-0.10125,1.85
34.525,3.08,9.69,-0.49,-0.86,9.81,-0.03375,1.67
34.578,3.06,9.71,-0.49,-0.92,9.81,-0.03375,1.32
34.635,3.03,9.8,-0.47,-0.94,9.81,-0.03375,1.32
34.689,3.02,9.77,-0.41,-0.95,9.82,-0.0675,1.32
34.747,3.02,9.78,-0.35,-0.95,9.82,-0.03375,1.23
34.799,3.02,9.81,-0.31,-0.95,9.82,-0.0675,1.23
34.856,3.01,9.8,-0.27,-0.95,9.82,-0.10125,1.23
34.908,2.99,9.8,-0.26,-0.95,9.82,-0.03375,1.15
34.967,2.97,9.82,-0.23,-0.95,9.82,-0.10125,1.15
35.024,2.96,9.8,-0.2,-0.95,9.82,-0.0675,1.15
35.077,2.96,9.82,-0.19,-0.95,9.82,-0.10125,1.06
35.131,2.94,9.89,-0.17,-0.95,9.82,-0.03375,1.06
35.186,2.92,9.88,-0.14,-0.94,9.82,-0.0675,1.06
35.239,2.91,9.93,-0.12,-0.95,9.82,-0.03375,1.15
35.295,2.91,10,-0.09,-0.97,9.82,-0.03375,1.15
35.348,2.9,9.98,-0.09,-0.96,9.82,-0.03375,0.97
35.405,2.86,9.98,-0.09,-0.98,9.82,-0.03375,1.06
35.458,2.85,10.04,-0.12,-0.98,9.82,892.0125,0.88
35.516,2.86,10.01,-0.11,-1.02,9.82,-0.03375,0.88
35.574,2.87,9.96,-0.09,-1.05,9.82,-0.03375,0.71
35.625,2.85,9.92,-0.05,-1.08,9.83,-0.03375,0.71
35.68,2.82,9.92,-0.04,-1.09,9.83,892.0125,0.71
35.736,2.79,9.94,-0.04,-1.12,9.83,-0.0675,0.71
35.793,2.78,9.94,-0.09,-1.09,9.83,-0.03375,0.53
35.846,2.77,9.92,-0.15,-1.04,9.83,-0.03375,0.44
35.903,2.76,9.87,-0.19,-1.02,9.83,-0.03375,0.35
35.956,2.74,9.82,-0.21,-1,9.83,-0.03375,0.27
36.011,2.74,9.81,-0.23,-1.01,9.83,892.0125,0.18
36.066,2.74,9.82,-0.26,-1.02,9.83,-0.0675,0
36.121,2.75,9.82,-0.28,-1.01,9.83,-0.0675,0
36.174,2.73,9.84,-0.28,-1.01,9.83,-0.03375,0.09
36.232,2.67,9.88,-0.26,-1.01,9.83,-0.0675,0.09
36.284,2.66,9.83,-0.27,-1.02,9.83,-0.10125,0.09
36.342,2.68,9.79,-0.29,-1.01,9.83,6.4125,-0.26
36.393,2.68,9.8,-0.28,-1,9.83,-0.03375,-0.35
36.45,2.67,9.93,-0.27,-1,9.83,-0.03375,-0.44
36.505,2.65,9.89,-0.24,-1,9.83,-0.03375,-0.52
36.558,2.64,9.97,-0.21,-1.01,9.84,-0.0675,-0.35
36.612,2.65,9.9,-0.2,-1.06,9.84,-0.0675,-0.26
36.665,2.64,9.92,-0.18,-1.07,9.84,-0.0675,-0.61
36.723,2.62,9.92,-0.18,-1.07,9.84,-0.0675,-1.4
36.775,2.62,9.94,-0.23,-1.05,9.84,-0.03375,-1.23
36.833,2.62,10.01,-0.27,-1.04,9.84,-0.0675,-0.96
36.89,2.63,9.88,-0.3,-1.07,9.84,-0.10125,-0.96
36.943,2.65,9.92,-0.31,-1.09,9.84,-0.03375,-0.96
37.001,2.64,9.95,-0.33,-1.06,9.84,-0.03375,-0.88
37.053,2.64,9.87,-0.35,-1.01,9.84,-0.10125,-0.96
37.107,2.64,9.84,-0.39,-0.98,9.84,-0.03375,-1.05
37.162,2.66,9.85,-0.43,-0.96,9.84,-0.03375,-1.05
37.217,2.66,9.81,-0.42,-0.92,9.84,-0.10125,-1.23
37.273,2.65,9.82,-0.45,-0.8,9.84,-0.03375,-1.32
37.33,2.63,9.77,-0.46,-0.7,9.85,-0.10125,-1.32
37.382,2.61,9.76,-0.47,-0.58,9.87,-0.03375,-1.32
37.434,2.62,9.66,-0.49,-0.52,9.89,-0.0675,-1.32
37.49,2.62,9.65,-0.52,-0.42,9.91,-0.03375,-1.14
37.549,2.6,9.64,-0.53,-0.33,9.96,-0.03375,-1.05
37.601,2.59,9.66,-0.58,-0.19,9.99,-0.03375,-0.96
37.654,2.59,9.69,-0.6,-0.1,10.03,-0.10125,-0.96
37.711,2.59,9.68,-0.62,-0.04,10.07,-0.0675,-0.88
37.765,2.59,9.69,-0.65,-0.01,10.1,-0.10125,-0.88
37.82,2.57,9.69,-0.66,0.06,10.13,-0.0675,-0.88
37.873,2.55,9.69,-0.69,0.11,10.17,-0.03375,-0.88
37.93,2.53,9.65,-0.7,0.16,10.18,-0.03375,-0.88
37.988,2.51,9.65,-0.73,0.18,10.2,-0.0675,-0.88
38.039,2.49,9.61,-0.74,0.19,10.2,-0.0675,-0.88
38.096,2.48,9.6,-0.76,0.18,10.2,-0.0675,-0.88
38.149,2.46,9.61,-0.79,0.15,10.2,-0.0675,-0.88
38.204,2.48,9.62,-0.8,0.16,10.2,-0.10125,-0.88
38.259,2.47,9.62,-0.81,0.18,10.2,-0.03375,-0.88
38.312,2.46,9.64,-0.82,0.2,10.2,-0.0675,-0.79
38.369,2.44,9.63,-0.84,0.22,10.19,-0.03375,-0.79
38.421,2.43,9.64,-0.86,0.21,10.19,-0.03375,-0.79
38.48,2.4,9.63,-0.89,0.22,10.19,-0.03375,-0.7
38.537,2.38,9.62,-0.89,0.24,10.19,-0.10125,-0.7
38.588,2.35,9.63,-0.9,0.24,10.19,-0.0675,-0.61
38.646,2.33,9.63,-0.91,0.25,10.19,-0.03375,-0.61
38.698,2.32,9.6,-0.92,0.23,10.19,-0.0675,-0.7
38.754,2.31,9.57,-0.93,0.19,10.19,-0.03375,-0.7
38.808,2.3,9.62,-0.94,0.18,10.19,-0.10125,-0.88
38.865,2.29,9.67,-0.95,0.17,10.18,-0.03375,-1.14
38.918,0.99,9.7,-0.97,0.16,10.18,-0.0675,-1.05
38.97,2.12,9.68,-0.97,0.16,10.18,-0.10125,-0.79
39.029,2.24,9.69,-0.98,0.12,10.18,-0.03375,-0.96
39.085,2.2,9.67,-0.98,0.08,10.18,-0.03375,-0.96
39.137,2.2,9.64,-0.99,0.03,10.18,-0.10125,-0.88
39.193,2.18,9.68,-0.99,-0.01,10.18,-0.0675,-0.52
39.247,2.17,9.67,-0.99,-0.04,10.18,-0.10125,-0.52
39.306,2.16,9.7,-1,-0.07,10.18,-0.0675,-0.35
39.358,2.15,9.79,-1.02,-0.1,10.18,-0.03375,-0.26
39.415,2.13,9.81,-1.05,-0.13,10.18,-0.10125,-0.08
39.467,2.12,9.83,-1.08,-0.16,10.18,-0.0675,-0.17
39.525,2.1,9.8,-1.1,-0.18,10.18,-0.10125,-0.08
39.577,2.08,9.74,-1.11,-0.18,10.18,-0.03375,-0.17
39.634,2.07,9.72,-1.12,-0.21,10.18,-0.03375,-0.17
39.686,2.06,9.68,-1.13,-0.24,10.18,-0.03375,-0.08
39.743,2.05,9.71,-1.14,-0.26,10.18,-0.03375,-0.17
39.795,2.02,9.71,-1.15,-0.3,10.18,-0.0675,-0.26
39.848,2.02,9.72,-1.14,-0.31,10.18,-0.03375,-0.26
39.905,1.99,9.7,-1.13,-0.33,10.18,-0.03375,-0.26
39.962,1.99,9.7,-1.09,-0.36,10.18,-0.10125,-0.44
40.016,1.98,9.64,-1.03,-0.37,10.18,-0.03375,-0.52
40.073,1.98,9.72,-1,-0.4,10.18,-0.03375,-0.26
40.125,1.94,9.71,-0.95,-0.41,10.18,-0.03375,-0.17
40.181,1.93,9.65,-0.91,-0.43,10.18,-0.03375,-0.08
40.235,1.89,9.59,-0.87,-0.43,10.18,-0.03375,0.09
40.292,1.89,9.61,-0.82,-0.43,10.18,-0.03375,0.18
40.344,1.87,9.51,-0.78,-0.44,10.18,-0.03375,0.09
40.396,1.87,9.53,-0.74,-0.43,10.18,-0.0675,0.09
40.453,1.54,9.56,-0.71,-0.4,10.18,-0.10125,0.18
40.507,1.82,9.51,-0.69,-0.39,10.18,-0.0675,0.09
40.563,1.81,9.49,-0.7,-0.4,10.18,-0.0675,0.18
40.621,1.79,9.48,-0.73,-0.41,10.18,-0.0675,-0.08
40.673,1.42,9.47,-0.75,-0.43,10.18,-0.03375,-0.08
40.73,1.37,9.52,-0.75,-0.43,10.18,-0.03375,-0.52
40.784,1.74,9.5,-0.74,-0.48,10.18,-0.0675,-0.7
40.841,1.28,9.48,-0.7,-0.49,10.18,-0.0675,-0.96
40.893,1.69,9.5,-0.66,-0.51,10.18,0,-1.23
40.946,1.68,9.48,-0.64,-0.53,10.18,-0.0675,-1.32
41.004,1.65,9.49,-0.63,-0.56,10.18,-0.03375,-1.4
41.06,1.64,9.48,-0.64,-0.6,10.18,-0.03375,-1.67
41.112,1.63,9.46,-0.64,-0.66,10.18,-0.0675,-1.84
41.169,1.59,9.47,-0.64,-0.68,10.18,-0.03375,-1.93
41.222,1.57,9.46,-0.63,-0.72,10.18,-0.0675,-2.11
41.28,1.56,9.44,-0.61,-0.72,10.18,-0.03375,-2.11
41.332,1.55,9.4,-0.64,-0.76,10.18,-0.03375,-2.02
41.39,1.53,9.4,-0.65,-0.76,10.18,-0.03375,-1.75
41.442,1.52,9.41,-0.67,-0.78,10.18,-0.03375,-1.75
41.497,1.51,9.48,-0.68,-0.78,10.18,-0.0675,-1.23
41.552,1.49,9.57,-0.71,-0.79,10.18,-0.0675,-1.32
41.61,1.48,9.58,-0.74,-0.8,10.18,-0.0675,-1.32
41.661,1.45,9.62,-0.76,-0.81,10.18,-0.03375,-1.4
41.719,1.43,9.67,-0.77,-0.82,10.18,-0.03375,-1.4
41.771,0.67,9.61,-0.78,-0.82,10.18,-0.03375,-1.32
41.83,0.72,9.64,-0.8,-0.82,10.18,-0.0675,-1.4
41.882,1.37,9.69,-0.81,-0.85,10.18,-0.0675,-1.49
41.939,1.35,9.66,-0.82,-0.88,10.18,-0.03375,-1.58
41.991,1.36,9.68,-0.83,-0.9,10.18,-0.10125,-1.49
42.046,1.34,9.66,-0.85,-0.89,10.18,-0.03375,-1.32
42.101,1.32,9.67,-0.86,-0.89,10.18,-0.03375,-0.96
42.159,1.32,9.81,-0.87,-0.91,10.18,-0.0675,-0.61
42.21,1.32,9.77,-0.88,-0.91,10.18,-0.10125,-0.52
42.268,1.31,9.84,-0.89,-0.89,10.18,-0.03375,-0.52
42.376,1.31,10,-0.91,-0.9,10.18,-0.03375,-0.61
42.429,1.31,10.05,-0.91,-0.87,10.18,-0.10125,-0.52
42.487,1.31,10.05,-0.91,-0.87,10.18,-0.10125,-0.52
42.652,1.19,10.05,-0.91,-0.89,10.18,-0.03375,-0.52
42.709,1.19,10.05,-0.92,-0.89,10.18,-0.10125,-0.52
42.762,1.18,9.95,-0.92,-0.93,10.18,-0.0675,-1.93
42.82,1.16,9.89,-0.92,-1,10.18,-0.0675,-1.84
42.877,1.16,9.96,-0.96,-0.95,10.18,-0.03375,-1.75
42.93,1.15,9.93,-0.98,-0.9,10.18,-0.0675,-1.49
42.987,1.06,9.95,-1,-0.87,10.18,-0.0675,-1.4
43.039,1.06,9.96,-1,-0.88,10.18,-0.03375,-1.4
43.092,1.13,10.11,-1,-0.94,10.18,-0.03375,-1.49
43.148,1.13,10.21,-0.97,-1.02,10.18,-0.03375,-1.75
43.206,1.12,10.36,-0.91,-1.02,10.18,-0.03375,-1.84
43.257,1.1,10.32,-0.88,-0.98,10.2,-0.03375,-1.93
43.311,1.1,10.27,-0.86,-0.99,10.23,-0.0675,-1.93
43.366,1.09,10.28,-0.84,-1.02,10.23,-0.0675,-1.84
43.419,1.08,10.26,-0.83,-1.04,10.24,-0.03375,-1.49
43.476,1.06,10.28,-0.83,-1.06,10.3,-0.0675,-1.4
43.534,1.08,10.33,-0.85,-1.04,10.34,-0.03375,-1.05
43.587,1.08,10.28,-0.85,-1.05,10.39,-0.03375,-0.7
43.641,1.08,10.29,-0.86,-1.05,10.44,-0.03375,-0.35
43.696,1.07,10.24,-0.87,-1.04,10.5,-0.03375,-0.26
43.751,1.08,10.21,-0.9,-1.08,10.55,-0.03375,-0.08
43.806,1.11,10.16,-0.97,-1.15,10.62,-0.0675,-0.08
43.859,1.09,10.1,-1.04,-1.19,10.68,-0.03375,-0.08
43.916,0.78,10.12,-1.12,-1.24,10.74,-0.0675,0
43.974,1.09,10.2,-1.17,-1.32,10.8,-0.03375,0.09
44.025,1.11,10.16,-1.21,-1.45,10.84,-0.03375,0.35
44.079,1.12,10.14,-1.25,-1.55,10.89,-0.03375,0.53
44.134,1.12,10.09,-1.29,-1.68,10.94,-0.03375,0.44
44.187,1.13,10.06,-1.32,-1.78,10.97,-0.03375,0.53
44.24,1.15,10.02,-1.33,-1.81,11.01,-0.03375,0.53
44.295,1.15,10.03,-1.37,-1.68,11.06,-0.03375,0.53
44.349,1.15,9.9,-1.42,-1.57,11.1,-0.0675,0.53
44.405,1.17,9.91,-1.49,-1.56,11.12,-0.10125,0.44
44.458,1.18,9.85,-1.49,-1.61,11.13,-0.03375,0.79
44.515,1.2,9.89,-1.5,-1.69,11.15,-0.0675,0.79
44.572,1.2,9.87,-1.5,-1.77,11.15,-0.03375,0.79
44.624,1.21,9.83,-1.49,-1.82,11.16,-0.03375,0.88
44.682,1.23,9.83,-1.46,-1.83,11.16,-0.0675,0.79
44.733,1.23,9.83,-1.44,-1.81,11.16,-0.10125,0.79
44.788,1.24,9.86,-1.44,-1.82,11.16,-0.03375,0.79
44.842,1.25,9.79,-1.45,-1.88,11.16,-0.03375,0.79
44.898,1.26,9.77,-1.44,-1.87,11.16,-0.0675,0.79
44.954,1.27,9.76,-1.43,-1.88,11.16,-0.0675,0.88
45.011,1.26,9.74,-1.42,-1.9,11.17,-0.03375,0.71
45.063,1.27,9.74,-1.42,-1.89,11.17,-0.0675,0.71
45.121,1.3,9.67,-1.41,-1.87,11.17,-0.0675,0.71
45.172,1.29,9.73,-1.4,-1.84,11.17,-0.03375,0.71
45.23,1.3,9.73,-1.39,-1.81,11.17,-0.0675,0.62
45.283,1.31,9.79,-1.4,-1.78,11.18,-0.03375,0.53
45.338,1.36,9.78,-1.4,-1.76,11.18,-0.0675,0.53
45.393,1.37,9.8,-1.39,-1.73,11.19,-0.03375,0.62
45.45,1.39,9.83,-1.38,-1.74,11.19,-0.03375,0.62
45.503,1.42,9.76,-1.37,-1.76,11.19,-0.03375,0.53
45.56,1.44,9.68,-1.37,-1.76,11.2,-0.0675,0.18
45.613,1.45,9.7,-1.36,-1.74,11.2,-0.0675,0.18
45.67,1.46,9.63,-1.35,-1.75,11.2,-0.03375,0.44
45.721,1.47,9.6,-1.35,-1.75,11.2,-0.03375,0.71
45.778,1.49,9.6,-1.34,-1.74,11.2,-0.03375,0.71
45.83,1.51,9.65,-1.34,-1.73,11.2,-0.03375,0.71
45.883,1.51,9.61,-1.33,-1.7,11.2,-0.0675,0.79
45.941,1.52,9.56,-1.33,-1.68,11.2,-0.10125,0.88
45.998,1.52,9.58,-1.33,-1.66,11.2,-0.0675,0.97
46.051,1.54,9.52,-1.33,-1.65,11.2,-0.10125,0.97
46.107,1.54,9.48,-1.33,-1.63,11.2,-0.03375,0.88
46.161,1.55,9.48,-1.32,-1.59,11.2,-0.0675,0.88
46.217,1.55,9.4,-1.3,-1.54,11.2,-0.03375,0.71
46.27,1.57,9.38,-1.29,-1.46,11.2,-0.0675,0.62
46.328,1.58,9.37,-1.29,-1.38,11.2,-0.03375,0.53
46.379,1.58,9.34,-1.28,-1.27,11.2,-0.03375,0.35
46.432,1.57,9.34,-1.28,-1.22,11.2,-0.03375,0.18
46.487,1.3,9.34,-1.28,-1.16,11.2,-0.03375,0.09
46.541,1.16,9.34,-1.28,-1.09,11.2,-0.03375,0
46.596,1.55,9.33,-1.28,-1.02,11.2,-0.03375,0
46.649,1.55,9.32,-1.29,-0.94,11.2,-0.03375,-0.08
46.707,1.55,9.29,-1.29,-0.87,11.2,0,-0.17
46.759,1.56,9.33,-1.28,-0.8,11.2,-0.03375,-0.26
46.817,1.55,9.33,-1.27,-0.73,11.19,-0.03375,-0.26
46.869,1.53,9.32,-1.24,-0.62,11.2,-0.03375,-0.35
46.927,1.52,9.3,-1.23,-0.53,11.2,-0.03375,-0.44
46.979,1.52,9.18,-1.21,-0.48,11.2,-0.03375,-0.44
47.034,0.82,9.25,-1.22,-0.46,11.2,-0.03375,-0.44
47.088,1.49,9.37,-1.21,-0.42,11.2,-0.0675,-0.44
47.141,1.47,9.38,-1.22,-0.37,11.19,-0.10125,-0.52
47.197,1.45,9.35,-1.19,-0.31,11.19,-0.03375,-0.79
47.251,1.44,9.29,-1.18,-0.28,11.19,-0.0675,-0.79
47.307,1.42,9.26,-1.15,-0.32,11.19,-0.03375,-0.7
47.364,1.41,9.25,-1.12,-0.3,11.19,-0.0675,-0.7
47.417,1.38,9.25,-1.1,-0.31,11.19,-0.03375,-0.96
47.47,1.37,9.26,-1.07,-0.31,11.19,-0.03375,-0.96
47.526,1.33,9.35,-1.03,-0.29,11.19,-0.03375,-0.96
47.578,1.31,9.35,-1,-0.24,11.19,-0.03375,-0.96
47.632,1.29,9.34,-0.97,-0.21,11.19,-0.03375,-0.44
47.687,1.27,9.3,-0.96,-0.2,11.19,-0.0675,-0.35
47.745,1.25,9.38,-0.96,-0.23,11.19,-0.10125,-0.35
47.796,1.22,9.4,-0.95,-0.2,11.19,-0.0675,-0.26
47.848,1.19,9.39,-0.93,-0.21,11.18,-0.03375,-0.35
47.906,1.18,9.39,-0.94,-0.23,11.18,-0.10125,-0.35
47.959,1.09,9.32,-0.94,-0.31,11.18,-0.0675,-0.52
48.015,1.1,9.34,-0.95,-0.34,11.18,-0.03375,-0.7
48.068,1.07,9.38,-0.96,-0.35,11.18,-0.10125,-0.79
48.125,1.04,9.37,-0.98,-0.37,11.18,-0.0675,-0.79
48.178,1,9.29,-0.98,-0.35,11.18,-0.10125,-0.79
48.234,0.98,9.3,-0.98,-0.35,11.18,-0.10125,-0.88
48.286,0.96,9.38,-0.97,-0.44,11.18,-0.03375,-1.05
48.343,0.96,9.44,-0.95,-0.55,11.18,-0.0675,-1.14
48.396,0.93,9.45,-0.96,-0.69,11.18,-0.03375,-1.14
48.454,0.89,9.57,-0.96,-0.81,11.17,-0.0675,-1.05
48.505,0.85,9.6,-0.97,-0.83,11.17,-0.10125,-1.05
48.563,0.84,9.62,-0.98,-0.85,11.17,-0.10125,-1.14
48.614,0.79,9.58,-0.99,-0.91,11.17,-0.03375,-1.32
48.669,0.75,9.53,-1,-1,11.17,-0.0675,-0.96
48.724,0.73,9.66,-1.01,-1.09,11.17,-0.0675,-1.32
48.777,0.72,9.72,-1.01,-1.15,11.17,-0.03375,-1.67
48.833,0.66,9.77,-1.04,-1.23,11.17,-0.0675,-1.58
48.888,0.62,9.78,-1.06,-1.3,11.17,-0.03375,-1.32
48.944,0.59,9.85,-1.1,-1.44,11.17,-0.03375,-1.49
49.002,0.57,9.83,-1.12,-1.54,11.17,-0.0675,-2.19
49.053,0.55,9.78,-1.11,-1.75,11.19,-0.0675,-2.46
49.111,0.53,9.67,-1.1,-1.86,11.19,-0.03375,-2.11
49.165,0.49,9.68,-1.14,-2.12,11.2,-0.10125,-2.11
49.222,0.48,9.69,-1.18,-2.26,11.2,-0.0675,-1.93
49.275,0.46,9.7,-1.19,-2.44,11.19,-0.03375,-2.11
49.332,0.45,9.74,-1.18,-2.6,11.2,-0.0675,-2.02
49.386,0.43,9.68,-1.18,-2.58,11.21,-0.0675,-1.93
49.444,0.35,9.63,-1.19,-2.71,11.21,-0.03375,-1.67
49.5,0.41,9.56,-1.19,-2.86,11.21,-0.03375,-1.67
49.552,0.41,9.5,-1.19,-3.07,11.21,-0.03375,-1.67
49.61,0.41,9.47,-1.19,-3.26,11.21,-0.0675,-1.75
49.662,0.4,9.44,-1.19,-3.52,11.21,-0.10125,-1.67
49.721,0.38,9.52,-1.22,-3.28,11.22,-0.0675,-1.67
49.771,0.38,9.56,-1.22,-3.55,11.22,-0.0675,-1.32
49.825,0.39,9.59,-1.22,-3.77,11.22,-0.03375,-1.23
49.88,0.38,9.55,-1.22,-3.98,11.22,-0.10125,-1.05
49.934,0.37,9.51,-1.22,-4.14,11.21,-0.10125,-0.96
49.992,0.37,9.49,-1.22,-4.32,11.22,-0.03375,-0.96
50.048,0.38,9.56,-1.22,-4.48,11.22,-0.03375,-0.96
50.102,0.38,9.56,-1.22,-4.48,11.22,-0.03375,-0.96
50.158,0.37,9.5,-1.21,-4.58,11.22,-0.0675,-1.05
50.21,0.38,9.41,-1.2,-4.53,11.23,-0.03375,-0.96
50.264,0.37,9.41,-1.2,-4.66,11.23,-0.03375,-0.88
50.319,0.37,9.41,-1.22,-4.8,11.22,-0.03375,-0.79
50.373,0.38,9.38,-1.21,-4.91,11.22,-0.10125,-0.79
50.431,0.38,9.39,-1.21,-4.98,11.23,-0.03375,-0.61
50.483,0.39,9.4,-1.25,-4.85,11.24,-0.03375,0
50.539,0.4,9.31,-1.22,-4.49,11.25,-0.10125,-0.08
50.597,0.4,9.26,-1.23,-4.1,11.26,-0.03375,-0.44
50.651,0.45,9.28,-1.24,-3.99,11.26,-0.03375,-0.44
50.703,0.45,9.33,-1.23,-4.1,11.26,-0.03375,-0.52
50.76,0.46,9.3,-1.22,-4.2,11.26,-0.10125,-0.35
50.812,0.47,9.34,-1.22,-4.16,11.26,-0.10125,-0.44
50.868,0.48,9.33,-1.25,-4.06,11.26,-0.03375,-0.17
50.921,0.48,9.3,-1.23,-3.73,11.27,-0.03375,-0.26
50.976,0.47,9.31,-1.25,-3.8,11.27,-0.03375,-0.35
51.03,0.47,9.37,-1.28,-3.78,11.28,-0.03375,-0.17
51.088,0.5,9.28,-1.29,-3.61,11.28,-0.10125,0.18
51.146,0.52,9.31,-1.32,-3.72,11.28,-0.10125,0.27
51.199,0.52,9.38,-1.35,-3.81,11.28,-0.0675,0.27
51.258,0.53,9.36,-1.37,-3.89,11.28,-0.0675,0.44
51.316,0.57,9.31,-1.38,-3.93,11.27,-0.10125,0.53
51.369,0.56,9.29,-1.41,-3.82,11.28,-0.03375,0.44
51.426,0.56,9.23,-1.44,-3.72,11.28,-0.03375,0.44
51.478,0.58,9.19,-1.47,-3.76,11.28,-0.135,0.53
51.537,0.58,9.29,-1.47,-3.81,11.28,-0.03375,0.53
51.59,0.61,9.3,-1.48,-3.83,11.27,-0.0675,0.44
51.646,0.62,9.3,-1.47,-3.8,11.27,-0.10125,0.53
51.699,0.63,9.26,-1.47,-3.71,11.27,-0.03375,0.53
51.756,0.66,9.3,-1.47,-3.65,11.27,-0.0675,0.44
51.81,0.67,9.32,-1.46,-3.64,11.27,-0.10125,0.44
51.866,0.68,9.3,-1.46,-3.64,11.27,-0.03375,0.27
51.919,0.68,9.18,-1.46,-3.67,11.27,-0.03375,-0.08
51.976,0.69,9.19,-1.46,-3.67,11.27,-0.0675,-0.17
52.034,0.71,9.17,-1.47,-3.52,11.28,-0.0675,-0.17
52.088,0.7,9.09,-1.46,-3.49,11.28,-0.0675,-0.08
52.144,0.71,9.1,-1.48,-3.48,11.28,-0.03375,0.09
52.196,0.72,9.24,-1.49,-3.52,11.27,-0.10125,0.18
52.254,0.72,9.18,-1.48,-3.54,11.27,-0.03375,-0.08
52.307,0.72,9.08,-1.53,-3.58,11.27,-0.03375,0.09
52.365,0.73,9.11,-1.54,-3.61,11.27,-0.03375,-0.08
52.416,0.74,9.13,-1.53,-3.53,11.27,-0.0675,-0.17
52.469,0.74,9.3,-1.58,-3.52,11.27,-0.10125,-0.44
52.524,0.72,9.2,-1.63,-3.47,11.28,-0.0675,-1.14
52.577,0.73,8.97,-1.64,-3.46,11.28,-0.03375,-0.96
52.631,0.74,8.86,-1.66,-3.5,11.27,-0.10125,-1.05
52.686,0.73,8.84,-1.74,-3.56,11.27,-0.03375,-1.05
52.742,0.71,8.9,-1.8,-3.57,11.26,-0.03375,-0.96
52.796,0.71,8.82,-1.87,-3.53,11.26,-0.03375,-0.88
52.854,0.71,8.77,-1.89,-3.3,11.27,-0.03375,-1.05
52.906,0.7,8.77,-1.97,-3.25,11.26,-0.03375,-1.23
52.963,0.7,8.69,-2.04,-3.25,11.26,-0.03375,-1.14
53.016,0.69,8.79,-2.05,-3.45,11.25,-0.03375,-1.14
53.076,0.7,8.82,-2.11,-3.48,11.24,-0.03375,-1.05
53.127,0.69,8.81,-2.17,-3.45,11.23,-0.03375,-1.14
53.184,0.68,8.8,-2.24,-3.42,11.23,-0.03375,-1.14
53.239,0.65,8.76,-2.3,-3.37,11.23,-0.03375,-1.23
53.293,0.65,8.74,-2.35,-3.35,11.22,-0.0675,-1.14
53.352,0.63,8.78,-2.36,-3.37,11.21,-0.03375,-1.14
53.403,0.59,8.77,-2.37,-3.45,11.2,-0.10125,-1.23
53.46,0.59,8.83,-2.28,-3.88,11.16,-0.03375,-1.23
53.513,0.59,8.86,-2.29,-4.38,11.11,-0.03375,-1.32
53.572,0.58,8.89,-2.3,-4.38,11.1,-0.03375,-1.32
53.624,0.55,8.72,-2.31,-4.37,11.1,-0.0675,-1.58
53.681,0.51,8.67,-2.34,-4.37,11.05,-0.10125,-1.84
53.734,0.51,8.68,-2.34,-4.36,11.01,-0.10125,-2.02
53.79,0.5,8.8,-2.34,-4.32,10.98,-0.10125,-2.11
53.843,0.47,8.82,-2.26,-4.44,10.96,-0.0675,-2.19
53.902,0.42,8.89,-2.26,-4.39,10.94,-0.0675,-2.11
53.959,0.39,8.92,-2.26,-4.4,10.91,-0.0675,-2.02
54.013,0.38,8.96,-2.25,-4.38,10.87,-0.0675,-1.93
54.068,0.36,8.82,-2.24,-4.45,10.86,-0.03375,-2.02
54.122,0.35,8.84,-2.2,-4.66,10.86,-0.0675,-2.02
54.177,0.35,8.79,-2.18,-4.85,10.85,-0.03375,-2.11
54.232,0.31,8.8,-2.19,-5.12,10.81,-0.03375,-2.11
54.289,0.29,8.87,-2.18,-5.39,10.8,-0.03375,-2.19
54.341,0.27,8.9,-2.18,-5.62,10.8,-0.0675,-2.28
54.399,0.25,8.87,-2.17,-5.8,10.8,-0.0675,-2.19
54.451,0.24,8.9,-2.15,-6.03,10.81,-0.03375,-1.75
54.507,0.23,8.79,-2.14,-6.22,10.81,-0.03375,-1.67
54.56,0.21,8.81,-2.13,-6.5,10.81,-0.0675,-1.32
54.614,0.21,8.76,-2.1,-6.73,10.8,-0.0675,-1.49
54.671,0.19,8.72,-2.09,-7.04,10.81,-0.03375,-2.19
54.724,0.18,8.76,-2.05,-7.3,10.81,-0.0675,-2.19
54.78,0.17,8.79,-2.03,-7.65,10.82,-0.03375,-2.11
54.838,0.16,8.7,-1.97,-7.84,10.83,-0.03375,-1.93
54.891,0.14,8.6,-1.93,-8.1,10.83,-0.0675,-2.02
54.948,0.14,8.57,-1.91,-8.4,10.83,-0.0675,-2.11
54.999,0.15,8.56,-1.9,-8.67,10.84,-0.03375,-2.19
55.058,0.15,8.61,-1.89,-8.97,10.84,-0.03375,-2.28
55.111,0.16,8.62,-1.88,-9.29,10.84,-0.03375,-2.28
55.164,0.17,8.6,-1.86,-9.52,10.84,-0.10125,-2.28
55.219,0.16,8.67,-1.86,-9.81,10.85,-0.03375,-3.34
55.273,0.16,8.7,-1.82,-10.02,10.85,-0.03375,-3.34
55.33,0.16,8.75,-1.82,-10.26,10.85,-0.0675,-3.25
55.386,0.16,8.8,-1.82,-10.33,10.85,-0.10125,-3.25
55.44,0.17,8.69,-1.8,-10.29,10.85,-0.03375,-3.16
55.496,0.17,8.62,-1.79,-10.36,10.86,-0.03375,-2.72
55.549,0.16,8.65,-1.79,-10.49,10.86,-0.0675,-2.46
55.608,0.16,8.66,-1.79,-10.61,10.86,-0.0675,-2.46
55.659,0.18,8.8,-1.76,-10.74,10.86,-0.03375,-2.55
55.717,0.2,8.83,-1.74,-10.83,10.87,-0.0675,-3.07
55.769,0.2,8.74,-1.75,-10.96,10.87,-0.03375,-3.25
55.823,0.21,8.78,-1.76,-11.09,10.87,-0.03375,-5.01
55.879,0.22,8.75,-1.76,-11.26,10.86,-0.0675,-5.01
55.936,0.22,8.75,-1.76,-11.33,10.86,-0.03375,-5.09
55.988,0.23,8.7,-1.75,-11.36,10.86,-0.03375,-5.45
56.046,0.23,8.69,-1.75,-11.36,10.87,-0.03375,-5.62
56.098,0.26,8.62,-1.78,-10.89,10.88,-0.0675,-5.62
56.157,0.27,8.62,-1.79,-10.86,10.88,-0.03375,-5.62
56.209,0.27,8.63,-1.78,-10.9,10.88,-0.135,-5.62
56.263,0.28,8.63,-1.78,-11.06,10.88,-0.0675,-5.62
56.318,0.28,8.66,-1.77,-11.28,10.88,-0.10125,-5.62
56.371,0.28,8.76,-1.79,-11.52,10.88,-0.10125,-5.8
56.427,0.27,8.78,-1.79,-11.73,10.87,-0.0675,-5.89
56.483,0.27,8.72,-1.8,-11.94,10.87,-0.03375,-5.89
56.537,0.28,8.67,-1.81,-12.08,10.87,-0.10125,-5.62
56.593,0.31,8.69,-1.82,-12.18,10.87,-0.0675,-5.53
56.646,0.3,8.66,-1.85,-12.28,10.86,-0.03375,-5.45
56.704,0.31,8.64,-1.87,-12.32,10.86,-0.03375,-5.62
56.756,0.33,8.57,-1.89,-12.26,10.85,-0.0675,-5.53
56.814,0.34,8.55,-1.92,-12.39,10.85,-0.0675,-5.53
56.865,0.32,8.53,-1.93,-12.47,10.83,-0.0675,-5.45
56.919,0.31,8.45,-1.97,-12.58,10.82,-0.03375,-5.45
56.975,0.32,8.43,-2.09,-12.8,10.8,-0.0675,-5.27
57.032,0.33,8.25,-2.1,-13.12,10.79,-0.0675,-5.01
57.086,0.32,8.36,-2.12,-13.45,10.76,-0.10125,-4.74
57.144,0.31,8.24,-2.1,-13.31,10.71,-0.10125,-4.83
57.196,0.32,8.16,-2.23,-13.6,10.69,-0.03375,-5.09
57.254,0.33,8.27,-2.31,-13.62,10.68,-0.03375,-5.97
57.307,0.32,8.32,-2.35,-13.61,10.66,-0.135,-7.12
57.363,0.28,8.3,-2.43,-13.69,10.58,-0.10125,-7.2
57.415,0.25,8.25,-2.44,-13.75,10.58,-0.0675,-7.38
57.472,0.27,8.21,-2.46,-13.88,10.53,-0.0675,-7.47
57.525,0.27,8.13,-2.49,-14.14,10.46,-0.03375,-7.56
57.582,0.24,7.94,-2.57,-14.16,10.42,-0.03375,-7.64
57.635,0.23,8.01,-2.58,-14.22,10.32,-0.03375,-7.91
57.693,0.22,7.89,-2.59,-14.25,10.3,-0.10125,-7.99
57.744,0.2,8,-2.73,-13.9,10.25,-0.03375,-8.26
57.802,0.16,7.98,-2.79,-13.57,10.18,-0.0675,-8.52
57.854,0.13,8,-2.83,-13.23,10.07,-0.10125,-8.87
57.912,0.12,7.99,-2.91,-12.67,10.05,-0.0675,-9.4
57.964,0.1,7.84,-2.9,-12.08,9.96,-0.03375,-11.77
58.017,0.04,7.69,-2.98,-11.77,9.92,-0.0675,-12.13
58.074,0.02,7.62,-3.06,-11.43,9.94,-0.10125,-10.19
58.13,0.02,6.91,-3.11,-10.22,9.93,-0.03375,-13.97
